Name,IATA,Location,Latitude,Longitude,Country,TimeZone
Utirik Airport,UTK,Utirik Island,11.222219,169.851429,MH,Pacific/Majuro
Ocean Reef Club Airport,OCA,Key Largo,25.325399398804,-80.274803161621,US,America/New_York
Cuddihy Field,CUX,Corpus Christi,27.7211,-97.512802,US,America/Chicago
Crested Butte Airpark,CSE,Crested Butte,38.851918,-106.928341,US,America/Denver
Columbus Airport,CUS,Columbus,31.823898,-107.629924,US,America/Denver
LBJ Ranch Airport,JCY,Stonewall,30.251801,-98.622498,US,America/Chicago
Nunapitchuk Airport,NUP,Nunapitchuk,60.905591,-162.440454,US,America/Nome
Icy Bay Airport,ICY,Icy Bay,59.966269,-141.660118,US,America/Anchorage
Kalakaket Creek AS Airport,KKK,Kalakaket Creek,64.4166256967,-156.820392609,US,America/Anchorage
Dunsmuir Muni-Mott Airport,MHS,Dunsmuir,41.263199,-122.272003,US,America/Los_Angeles
Chase Field Industrial Airport,NIR,Beeville,28.362444,-97.661917,US,America/Chicago
Grand Canyon Bar Ten Airstrip,GCT,Littlefield,36.258614,-113.231159,US,America/Phoenix
Lime Village Airport,LVD,Lime Village,61.3591003418,-155.440002441,US,America/Anchorage
Hog River Airport,HGZ,Hogatza,66.176133,-155.684816,US,America/Anchorage
Ed-Air Airport,OTN,Oaktown,38.851782,-87.49987,US,America/Indiana/Vincennes
Telida Airport,TLF,Telida,63.393901824951,-153.26899719238,US,America/Anchorage
Eagle Air Park,BZT,Brazoria,28.982200622559,-95.579696655273,US,America/Chicago
Blakely Island Airport,BYW,Blakely Island,48.579162,-122.823844,US,America/Los_Angeles
Drift River Airport,DRF,Kenai,60.5889015198,-152.162002563,US,America/Anchorage
Rinkenberger Restricted Landing Area,BDF,Bradford,41.2308998108,-89.61569976810001,US,America/Chicago
Tetlin Airport,TEH,Tetlin,63.124618,-142.518005,US,America/Anchorage
Roy Otten Memorial Airfield,VRS,Versailles,38.427799224854,-92.875198364258,US,America/Chicago
Atmautluak Airport,ATT,Atmautluak,60.866699,-162.272996,US,America/Nome
Livengood Camp Airport,LIV,Livengood,65.467,-148.6534,US,America/Anchorage
Pedro Bay Airport,PDB,Pedro Bay,59.796925,-154.129994,US,America/Anchorage
Ouzinkie Airport,KOZ,Ouzinkie,57.942094,-152.464314,US,America/Anchorage
Tununak Airport,TNK,Tununak,60.569638,-165.246649,US,America/Nome
Minto Al Wright Airport,MNT,Minto,65.147991,-149.368658,US,America/Anchorage
Aleknagik / New Airport,WKK,Aleknagik,59.2826004028,-158.617996216,US,America/Anchorage
Rollang Field,RFK,Rolling Fork,32.953543,-90.845144,US,America/Chicago
Naknek Airport,NNK,Naknek,58.735633,-157.02216,US,America/Anchorage
Southern Seaplane Airport,BCS,Belle Chasse,29.866078,-90.021608,US,America/Chicago
Minute Man Air Field,MMN,Stow,42.460298,-71.519031,US,America/New_York
Earl Henry Airport,BWL,Blackwell,36.7958984375,-97.3170013428,US,America/Chicago
Center Island Airport,CWS,Center Island,48.490046,-122.831612,US,America/Los_Angeles
Tatitlek Airport,TEK,Tatitlek,60.871449,-146.690297,US,America/Anchorage
Pine Island Airport,DUF,Corolla,36.2535018921,-75.7884979248,US,America/New_York
Stuart Island Airpark,SSW,Friday Harbor,48.673379,-123.175439,US,America/Los_Angeles
Fort Bragg Airport,FOB,Fort Bragg,39.472445,-123.795319,US,America/Los_Angeles
Maxson Airfield,AXB,Alexandria Bay,44.312002,-75.90034,US,America/New_York
Reese Airpark,REE,Lubbock,33.590301513672,-102.03700256348,US,America/Chicago
Waldron Airstrip,WDN,Eastsound,48.71141,-123.018208,US,America/Los_Angeles
Chuathbaluk Airport,CHU,Chuathbaluk,61.579102,-159.216003,US,America/Anchorage
Ugashik Airport,UGS,Ugashik,57.523476,-157.396344,US,America/Anchorage
Levelock Airport,KLL,Levelock,59.12606,-156.860906,US,America/Anchorage
Tuntutuliak Airport,WTL,Tuntutuliak,60.351243,-162.654476,US,America/Nome
Twin Hills Airport,TWA,Twin Hills,59.074713,-160.274992,US,America/Anchorage
Chignik Lake Airport,KCQ,Chignik Lake,56.2550010681,-158.774993896,US,America/Anchorage
Adado Airport,AAD,Adado,6.095802,46.6375,SO,Africa/Mogadishu
Atkamba Airport,ABP,Atkamba Mission,-6.06462,141.095173,PG,Pacific/Port_Moresby
Arica Airport,ACM,Arica,-2.143713,-71.75935,CO,America/Bogota
Andakombe Airport,ADC,Andekombe,-7.13722222222,145.744722222,PG,Pacific/Port_Moresby
El Daein Airport,ADV,El Daein,11.4023,26.1186,SD,Africa/Khartoum
Adareil Airport,AEE,Adar,10.053611,32.959444,SS,Africa/Juba
Aseki Airport,AEK,Aseki,-7.350805,146.193994,PG,Pacific/Port_Moresby
Ar Horqin Airport,AEQ,Chifeng,43.908407,120.15099,CN,Asia/Shanghai
"""Ghost"" International Airport",KHT,Khost,33.284605,69.80734,AF,Asia/Kabul
Orūzgān Airport,URZ,Orūzgān,32.9029998779,66.630897522,AF,Asia/Kabul
Salerno Airport,OLR,Khost,33.3638,69.9561,AF,Asia/Kabul
Afore Airstrip,AFR,,-9.13867,148.390701,PG,Pacific/Port_Moresby
Afutara Aerodrome,AFT,Bila,-9.19138888889,160.948611111,SB,Pacific/Guadalcanal
Ulawa Airport,RNA,Arona,-9.86054358262,161.979546547,SB,Pacific/Guadalcanal
Uru Harbour Airport,ATD,Atoifi,-8.87333,161.011002,SB,Pacific/Guadalcanal
Barakoma Airport,VEV,Barakoma,-7.912779808044434,156.70599365234375,SB,Pacific/Guadalcanal
Geva Airport,GEF,Liangia,-7.575829982757568,156.5970001220703,SB,Pacific/Guadalcanal
Angoram Airport,AGG,Angoram,-4.05583333333,144.073888889,PG,Pacific/Port_Moresby
Gwaunaru'u Airport,AKS,Auki,-8.70257,160.682007,SB,Pacific/Guadalcanal
Bellona/Anua Airport,BNY,Anua,-11.3022222222,159.798333333,SB,Pacific/Guadalcanal
Choiseul Bay Airport,CHY,,-6.711944,156.396111,SB,Pacific/Guadalcanal
Ballalae Airport,BAS,Ballalae,-6.990745,155.886656,SB,Pacific/Guadalcanal
Fera/Maringe Airport,FRE,Fera Island,-8.1075,159.576996,SB,Pacific/Guadalcanal
Honiara International Airport,HIR,Honiara,-9.428,160.054993,SB,Pacific/Guadalcanal
Babanakira Airport,MBU,Mbambanakira,-9.7475004196167,159.83900451660156,SB,Pacific/Guadalcanal
Avu Avu Airport,AVU,,-9.86833333333,160.410555556,SB,Pacific/Guadalcanal
Ngorangora Airport,IRA,Kirakira,-10.4497003555,161.897994995,SB,Pacific/Guadalcanal
Santa Cruz/Graciosa Bay/Luova Airport,SCZ,Santa Cruz/Graciosa Bay/Luova,-10.72029972076416,165.7949981689453,SB,Pacific/Guadalcanal
Munda Airport,MUA,Munda,-8.32797,157.263,SB,Pacific/Guadalcanal
Nusatupe Airport,GZO,Gizo,-8.09778022766,156.863998413,SB,Pacific/Guadalcanal
Mono Airport,MNY,Stirling Island,-7.416940212249756,155.56500244140625,SB,Pacific/Guadalcanal
Parasi Airport,PRS,Parasi,-9.64167022705078,161.4250030517578,SB,Pacific/Guadalcanal
Rennell/Tingoa Airport,RNL,Rennell Island,-11.533900260925291,160.06300354003906,SB,Pacific/Guadalcanal
Sege Airport,EGM,Sege,-8.578889846801758,157.87600708007812,SB,Pacific/Guadalcanal
Santa Ana Airport,NNB,Santa Ana Island,-10.847994,162.454108,SB,Pacific/Guadalcanal
Marau Airport,RUS,Marau,-9.86166954041,160.824996948,SB,Pacific/Guadalcanal
Suavanao Airport,VAO,Suavanao,-7.585559844970703,158.7310028076172,SB,Pacific/Guadalcanal
Yandina Airport,XYA,Yandina,-9.092816,159.21841,SB,Pacific/Guadalcanal
Kagua Airport,AGK,Kagua,-6.396388888890001,143.853611111,PG,Pacific/Port_Moresby
Kaghau Airport,KGE,Kagau Island,-7.3305,157.585,SB,Pacific/Guadalcanal
Kukudu Airport,KUE,Kolombangara Island,-8.0262,156.94783,SB,Pacific/Guadalcanal
Kwailabesi Airport,KWS,Kwailabesi,-8.360508,160.775127,SB,Pacific/Guadalcanal
Wanigela Airport,AGL,,-9.3375,149.155555556,PG,Pacific/Port_Moresby
Lomlom Airport,LLM,Lomlom,-10.296828,166.327322,SB,Pacific/Guadalcanal
Nana Airport,NAZ,Star Harbor,-10.6758,162.2049,SB,Pacific/Guadalcanal
Manaoba Airport,MHM,Manaoba,-8.325008,160.80051,SB,Pacific/Guadalcanal
Gatokae Aerodrome,GTA,Gatokae,-8.738358,158.202836,SB,Pacific/Guadalcanal
Ringi Cove Airport,RIN,Ringi Cove,-8.12639045715332,157.14300537109375,SB,Pacific/Guadalcanal
Ramata Airport,RBV,Ramata,-8.168060302734375,157.64300537109375,SB,Pacific/Guadalcanal
Argyle Downs Airport,AGY,Argyle Downs,-16.508604,128.922485,AU,Australia/Perth
Hongyuan Airport,AHJ,Ngawa (Hongyuan),32.53154,102.35224,CN,Asia/Shanghai
Ambatolhy Airport,AHY,Ambatolahy,-20.0158333333,45.535,MG,Indian/Antananarivo
Aiome Airport,AIE,Aiome,-5.145699978,144.7307003,PG,Pacific/Port_Moresby
Aiambak Airport,AIH,Aiambak,-7.342777777779999,141.2675,PG,Pacific/Port_Moresby
Ailinglaplap Airok Airport,AIC,Bigatyelang Island,7.279422,168.8257,MH,Pacific/Majuro
Chena Hot Springs Airport,CEX,Chena Hot Springs,65.0518035889,-146.04699707,US,America/Anchorage
Solomon State Field,SOL,Solomon,64.5605,-164.4457,US,America/Nome
Herendeen Bay Airport,HED,Herendeen Bay,55.801399231,-160.899002075,US,America/Anchorage
Taylor Airport,TWE,Taylor,65.6792984009,-164.798995972,US,America/Nome
Point Lonely Short Range Radar Site Airfield,LNI,Point Lonely,70.911118,-153.237766,US,America/Anchorage
Candle 2 Airport,CDL,Candle,65.907699585,-161.925994873,US,America/Anchorage
Boswell Bay Airport,BSW,Boswell Bay,60.4230995178,-146.145996094,US,America/Anchorage
Zakuoma Airport,AKM,ZaKouma,10.8902777778,19.8172222222,TD,Africa/Ndjamena
Mar de Cortés International Airport,PPE,Puerto Peñasco,31.351987,-113.305177,MX,America/Hermosillo
Alto Molocue Airport,AME,Alto Molocue,-15.6102777778,37.6813888889,MZ,Africa/Maputo
Ama Airport,AMF,,-4.10111111111,141.67,PG,Pacific/Port_Moresby
Amanab Airport,AMU,Amanab,-3.586,141.214333333,PG,Pacific/Port_Moresby
Ambatomainty Airport,AMY,,-17.686667,45.623889,MG,Indian/Antananarivo
Nauru International Airport,INU,Yaren District,-0.547458,166.919006,NR,Pacific/Nauru
Angus Downs Airport,ANZ,Angus Downs Station,-25.0325,132.2748,AU,Australia/Darwin
Catoca Airport,CTV,Saurimo,-9.430985,20.311478,AO,Africa/Luanda
Andulo Airport,ANL,Andulo,-11.4723,16.710899,AO,Africa/Luanda
Cangamba Airport,CNZ,Cangamba,-13.7106,19.861099,AO,Africa/Luanda
Dirico Airport,DRC,Dirico,-17.981924057006836,20.7680606842041,AO,Africa/Luanda
Capanda Airport,KNP,Capanda,-9.76937007904,15.4553194046,AO,Africa/Luanda
N'dalatando Airport,NDF,N'dalatando,-9.280378,14.982432,AO,Africa/Luanda
Annanberg Airport,AOB,,-4.90416666667,144.635833333,PG,Pacific/Port_Moresby
Abou-Deïa Airport,AOD,Abou-Deïa,11.4773,19.2874,TD,Africa/Ndjamena
Asapa Airport,APP,,-8.979167,148.103611,PG,Pacific/Port_Moresby
April River Airport,APR,April River,-4.67666666667,142.540138889,PG,Pacific/Port_Moresby
Troll Airfield,QET,Troll Station,-71.95714,2.45257,AQ,Antarctica/Troll
Girdwood-Alyeska Airport,AQY,Girdwood,60.968774,-149.119792,US,America/Anchorage
Bragado Airport,QRF,Bragado,-35.145811,-60.480294,AR,America/Argentina/Buenos_Aires
Caleta Olivia Airport,CVI,Caleta Olivia,-46.37428,-67.59409,AR,America/Argentina/Rio_Gallegos
Charata Airport,CNT,Charata,-27.2164,-61.2103,AR,America/Argentina/Cordoba
General Villegas Airport,VGS,General Villegas,-34.995728,-62.999725,AR,America/Argentina/Buenos_Aires
Los Menucos Airport,LMD,Los Menucos,-40.817699,-68.074699,AR,America/Argentina/Salta
Valcheta Airport,VCF,Valcheta,-40.7000007629,-66.1500015259,AR,America/Argentina/Salta
Sunchales Aeroclub Airport,NCJ,Sunchales,-30.9575,-61.5283,AR,America/Argentina/Cordoba
Carmen de Patagones Airport,CPG,Carmen de Patagones,-40.7781,-62.9803,AR,America/Argentina/Buenos_Aires
Termal Airport,PRQ,Presidencia Roque Sáenz Peña,-26.753611,-60.492222,AR,America/Argentina/Cordoba
Colonia Sarmiento Airport,OLN,Sarmiento,-45.582371,-68.999841,AR,America/Argentina/Catamarca
Aragip Airport,ARP,,-9.88333333333,149.483333333,PG,Pacific/Port_Moresby
Asirim Airport,ASZ,,-6.009722222220001,150.368611111,PG,Pacific/Port_Moresby
Namatanai Airport,ATN,Namatanai,-3.6695,152.438,PG,Pacific/Port_Moresby
Aitape Airport,ATP,Aitape,-3.14361111111,142.346805556,PG,Pacific/Port_Moresby
Lady Elliot Island Airstrip,LYT,Lady Elliot Island,-24.1129,152.7156,AU,Australia/Brisbane
Gruyere Airport,GYZ,Cosmo Newbery,-28.034548,123.81506,AU,Australia/Perth
Karara Airport,KQR,Karara,-29.217223,116.687154,AU,Australia/Perth
Alpha Airport,ABH,Alpha,-23.652849,146.582668,AU,Australia/Brisbane
Agnew Airport,AGW,Agnew,-12.1456,142.149369,AU,Australia/Brisbane
Alroy Downs Airport,AYD,Alroy Downs,-19.2908,136.078995,AU,Australia/Darwin
Baniyala Airport,BYX,Baniyala,-13.1981,136.227005,AU,Australia/Darwin
Coolibah Airport,COB,Coolibah,-15.548299789428713,130.96200561523438,AU,Australia/Darwin
Coorabie Airport,CRJ,Coorabie,-31.894399642944336,132.29600524902344,AU,Australia/Adelaide
Carlton Hill Airport,CRY,Carlton Hill,-15.50189971923828,128.53399658203125,AU,Australia/Perth
Cresswell Downs Airport,CSD,Cresswell Downs,-17.947999954223633,135.91600036621094,AU,Australia/Darwin
Diamantina Lakes Airport,DYM,Diamantina Lakes,-23.761699676513672,141.14500427246094,AU,Australia/Brisbane
Helenvale Airport,HLV,Helenvale,-15.685799598693848,145.21499633789062,AU,Australia/Brisbane
Kimberley Downs Airport,KBD,Kimberley Downs,-17.39780044555664,124.3550033569336,AU,Australia/Perth
Kulgera Airport,KGR,Ghan,-25.8428,133.292007,AU,Australia/Darwin
Orchid Beach Airport,OKB,Orchid Beach,-24.959400177002,153.31500244141,AU,Australia/Brisbane
Peppimenarti Airport,PEP,Peppimenarti,-14.1442,130.091003,AU,Australia/Darwin
Rockhampton Downs Airport,RDA,Rockhampton Downs,-18.95330047607422,135.2010040283203,AU,Australia/Darwin
Sturt Creek Airport,SSK,Sturt Creek,-19.166400909423828,128.1739959716797,AU,Australia/Perth
Shaw River Airport,SWB,Shaw River,-21.510299682617188,119.36199951171876,AU,Australia/Perth
Tom Price Airport,TPR,Tom Price,-22.746000289900003,117.869003296,AU,Australia/Perth
Torwood Airport,TWP,Torwood,-17.363300323486328,143.75,AU,Australia/Brisbane
Springvale Airport,ZVG,Springvale,-17.78689956665039,127.66999816894533,AU,Australia/Perth
Aua Island Airport,AUI,Aua Island,-1.46055555556,143.064722222,PG,Pacific/Port_Moresby
Ambunti Airport,AUJ,Ambunti,-4.21566666667,142.823166667,PG,Pacific/Port_Moresby
Agaun Airport,AUP,,-9.930833,149.385667,PG,Pacific/Port_Moresby
Aumo Airport,AUV,Aumo,-5.731111111110001,148.445277778,PG,Pacific/Port_Moresby
Alowe Airport,AWE,Wonga Wongué Presidential Reserve,-0.545,9.444,GA,Africa/Libreville
Alxa Left Banner Bayanhot Airport,AXF,Bayanhot,38.74831,105.58858,CN,Asia/Shanghai
Pantar Kabir Airport,AXO,Kabir,-8.244832,124.219108,ID,Asia/Makassar
Kompiam Airport,KPM,,-5.38166666667,143.924722222,PG,Pacific/Port_Moresby
Buka Airport,BUA,Buka Island,-5.422319889068604,154.67300415039062,PG,Pacific/Bougainville
Biaru Airport,BRP,Biaru,-7.6693,146.7594,PG,Pacific/Port_Moresby
Chimbu Airport,CMU,Kundiawa,-6.024290084838867,144.9709930419922,PG,Pacific/Port_Moresby
Munduku Airport,MDM,Munduku,-4.6204,143.4516,PG,Pacific/Port_Moresby
Kondobol Airport,KPF,Kondobol,-8.5336,142.5049,PG,Pacific/Port_Moresby
Dinangat Airport,DNU,Dinangat,-6.1546,146.6772,PG,Pacific/Port_Moresby
Doini Airport,DOI,Castori Islets,-10.7009,150.7218,PG,Pacific/Port_Moresby
Daru Airport,DAU,Daru,-9.08676,143.207993,PG,Pacific/Port_Moresby
Embessa Airport,EMS,Embessa,-9.447,148.7628,PG,Pacific/Port_Moresby
Edwaki Airport,XYR,Yellow River Mission,-3.883986,141.792234,PG,Pacific/Port_Moresby
Eliptamin Airport,EPT,Eliptamin,-5.0412,141.6779,PG,Pacific/Port_Moresby
Engati Airstrip,EGA,Engati,-6.9179,146.1053,PG,Pacific/Port_Moresby
Emo River Airstrip,EMO,Emo Mission,-9.1234,148.0415,PG,Pacific/Port_Moresby
Erume Airport,ERU,Erume,-8.2538,146.9747,PG,Pacific/Port_Moresby
Meselia Airport,MFZ,Demgulu,-6.1364,149.1183,PG,Pacific/Port_Moresby
Feramin Airport,FRQ,Feramin,-5.208,141.6988,PG,Pacific/Port_Moresby
Frieda River Airport,FAQ,Frieda River,-4.610468,141.960138,PG,Pacific/Port_Moresby
Fuma Airport,FUM,Fuma,-6.3933,142.4408,PG,Pacific/Port_Moresby
Goroka Airport,GKA,Goronka,-6.081689834590001,145.391998291,PG,Pacific/Port_Moresby
Guari Airport,GUG,Guari,-8.1286,146.8722,PG,Pacific/Port_Moresby
Garasa Airport,GRL,Au,-7.980713,147.213461,PG,Pacific/Port_Moresby
Gurney Airport,GUR,Gurney,-10.3114995956,150.333999634,PG,Pacific/Port_Moresby
Gusap Airport,GAP,Gusap,-6.053196,145.959047,PG,Pacific/Port_Moresby
Girua Airport,PNP,Popondetta,-8.80453968048,148.309005737,PG,Pacific/Port_Moresby
Gasuke Airport,GBC,Gasuke,-6.1028,141.7393,PG,Pacific/Port_Moresby
Habi Airport,HBD,Habi,-6.32,142.4893,PG,Pacific/Port_Moresby
Heiweni Airport,HNI,Heiweni,-7.4223,146.4276,PG,Pacific/Port_Moresby
Honinabi Airport,HNN,Honinabi,-6.2457,142.1771,PG,Pacific/Port_Moresby
Hoskins Airport,HKN,Kimbe,-5.463846,150.407327,PG,Pacific/Port_Moresby
Haivaro Airport,HIT,Haivaro,-6.9406,143.059,PG,Pacific/Port_Moresby
Imane Airport,IMN,Imane,-6.7524,146.1072,PG,Pacific/Port_Moresby
Kungim Airport,KGM,Kungim,-5.671,141.03,PG,Pacific/Port_Moresby
Imonda Airport,IMD,Imonda,-3.328,141.1573,PG,Pacific/Port_Moresby
Aropa Airport,KIE,Kieta,-6.305417,155.728139,PG,Pacific/Bougainville
Ialibu Airport,IAL,Ialibu,-6.2782,143.9944,PG,Pacific/Port_Moresby
Witu Airport,WIU,Garove Island,-4.689522,149.440112,PG,Pacific/Port_Moresby
Yongai Airport,KGH,Yongai,-8.5289,147.4603,PG,Pacific/Port_Moresby
Losuia Airport,LSA,Losuia,-8.505820274353027,151.08099365234375,PG,Pacific/Port_Moresby
Kopiago Airport,KPA,Kopiago,-5.3883,142.4977,PG,Pacific/Port_Moresby
Kiunga Airport,UNG,Kiunga,-6.1257100105285645,141.28199768066406,PG,Pacific/Port_Moresby
Kanainj Airport,KNE,Kanainj,-5.2903,144.7072,PG,Pacific/Port_Moresby
Kikori Airport,KRI,Kikori,-7.424379825592041,144.2500762939453,PG,Pacific/Port_Moresby
Kerema Airport,KMA,Kerema,-7.96361017227,145.770996094,PG,Pacific/Port_Moresby
Kar Kar Airport,KRX,Kar Kar Island,-4.557,145.9404,PG,Pacific/Port_Moresby
Kuri Airport,KUQ,Kuri,-7.135083,143.276111,PG,Pacific/Port_Moresby
Kavieng Airport,KVG,Kavieng,-2.57940006256,150.807998657,PG,Pacific/Port_Moresby
Londolovit Airport,LNV,Londolovit,-3.04361009598,152.628997803,PG,Pacific/Port_Moresby
Lab Lab Airport,LAB,Lab Lab Mission,-5.7204,148.0566,PG,Pacific/Port_Moresby
Lowai Airport,LWI,Lowai,-6.3344,146.6458,PG,Pacific/Port_Moresby
Leron Plains Airport,LPN,Leron Plains,-6.3917,146.3434,PG,Pacific/Port_Moresby
Lese Airport,LNG,Lese,-8.2799,146.2765,PG,Pacific/Port_Moresby
Long Island Airport,LSJ,Long Island,-5.3604,147.0177,PG,Pacific/Port_Moresby
Manari Airport,MRM,Manari,-9.1908,147.6219,PG,Pacific/Port_Moresby
Morobe Airport,OBM,Morobe,-7.74,147.59,PG,Pacific/Port_Moresby
Madang Airport,MAG,Madang,-5.20707988739,145.789001465,PG,Pacific/Port_Moresby
Mount Hagen Kagamuga Airport,HGU,Mount Hagen,-5.828212,144.299412,PG,Pacific/Port_Moresby
Mougulu Airport,GUV,Mougulu,-6.280859,142.420775,PG,Pacific/Port_Moresby
Mendi Airport,MDU,Mendi,-6.14774,143.656998,PG,Pacific/Port_Moresby
Momote Airport,MAS,Manus Island,-2.06189,147.423996,PG,Pacific/Port_Moresby
Moro Airport,MXH,Moro,-6.36332988739,143.238006592,PG,Pacific/Port_Moresby
Misima Island Airport,MIS,Misima Island,-10.6892004013,152.837997437,PG,Pacific/Port_Moresby
Marawaka Airport,MWG,Marawaka,-6.9736,145.8849,PG,Pacific/Port_Moresby
Nankina Airport,NKN,Gwarawon,-5.837,146.4533,PG,Pacific/Port_Moresby
Negarbo(Negabo) Airport,GBF,Negarbo,-6.567778,144.703058,PG,Pacific/Port_Moresby
Manguna Airport,MFO,Manguna,-5.577778,151.792333,PG,Pacific/Port_Moresby
Kasonombe Airport,KSB,Kasonombe,-6.3819,146.9859,PG,Pacific/Port_Moresby
Nomane Airport,NMN,Namane,-6.32183,145.070667,PG,Pacific/Port_Moresby
Nambaiyufa Airport,NBA,Nambaiyufa,-6.2412,145.2424,PG,Pacific/Port_Moresby
Nadzab Airport,LAE,Lae,-6.569803,146.725977,PG,Pacific/Port_Moresby
Konge Airport,KGB,Konge,-6.2239,147.2152,PG,Pacific/Port_Moresby
Oksapmin Airport,OKP,Oksapmin,-5.2261,142.2259,PG,Pacific/Port_Moresby
Komako Airport,HOC,Komako,-7.3984,145.8827,PG,Pacific/Port_Moresby
Komaio Airport,KCJ,Komaio,-7.2714,143.5952,PG,Pacific/Port_Moresby
Koroba Airport,KDE,Koroba,-5.6952,142.7441,PG,Pacific/Port_Moresby
Open Bay Airport,OPB,Maitanakunai,-4.794727,151.696195,PG,Pacific/Port_Moresby
Pangoa Airport,PGB,Pangoa,-7.0226,141.5605,PG,Pacific/Port_Moresby
Pangia Airport,PGN,Pangia,-6.386,144.1084,PG,Pacific/Port_Moresby
Mapoda Airport,MPF,Mapoda,-7.979,143.1694,PG,Pacific/Port_Moresby
Pumani Airport,PMN,Pumani,-9.7469,149.4766,PG,Pacific/Port_Moresby
Port Moresby Jacksons International Airport,POM,Port Moresby,-9.44338035583496,147.22000122070312,PG,Pacific/Port_Moresby
Sopu Airport,SPH,Sopu,-8.3038,147.1659,PG,Pacific/Port_Moresby
Sialum Airport,SXA,Sialum,-6.0908,147.5955,PG,Pacific/Port_Moresby
Rumginae Airport,RMN,,-5.89722222222,141.271666667,PG,Pacific/Port_Moresby
Karimui Airport,KMR,Karimui,-6.4921,144.823,PG,Pacific/Port_Moresby
Maramuni Airport,MWI,Maramuni,-5.13,143.4829,PG,Pacific/Port_Moresby
May River Airstrip,MRH,May River,-4.3615,141.785,PG,Pacific/Port_Moresby
Suabi Airport,SBE,,-6.10444444444,142.278333333,PG,Pacific/Port_Moresby
Simberi Airport,NIS,Simberi Island,-2.66222222222,151.997777778,PG,Pacific/Port_Moresby
Sila Airport,SIL,Sila Mission,-9.07355555556,148.38925,PG,Pacific/Port_Moresby
Sabah Airport,SBV,Sabah,-5.5765,155.0489,PG,Pacific/Bougainville
Simbai Airport,SIM,Simbai,-5.278611111110001,144.544722222,PG,Pacific/Port_Moresby
Selbang Airport,SBC,Selbang,-5.315,141.752,PG,Pacific/Port_Moresby
Sepik Plains Airport,SPV,Sepik Plains,-3.8821,143.6734,PG,Pacific/Port_Moresby
Sauren Airport,SXW,Sauren,-5.9701,148.8543,PG,Pacific/Port_Moresby
Masa Airport,MBV,Masa,-6.345,147.591,PG,Pacific/Port_Moresby
Tari Airport,TIZ,Tari,-5.84499979019,142.947998047,PG,Pacific/Port_Moresby
Tabubil Airport,TBG,Tabubil,-5.27861,141.225998,PG,Pacific/Port_Moresby
Tapini Airport,TPI,Tapini,-8.35666666667,146.989166667,PG,Pacific/Port_Moresby
Tokua Airport,RAB,Kokopo,-4.34046,152.380005,PG,Pacific/Port_Moresby
Tekin Airport,TKW,Tekin,-5.24366666667,142.165194444,PG,Pacific/Port_Moresby
Tep Tep Airport,TEP,Teptep,-5.9553,146.5595,PG,Pacific/Port_Moresby
Tsewi Airport,TSW,Tsewi,-7.0695,146.1272,PG,Pacific/Port_Moresby
Tarakbits Airport,TRJ,Tarakbits,-5.614,141.0421,PG,Pacific/Port_Moresby
Tawa Airport,TWY,Tawa,-7.4463,146.1067,PG,Pacific/Port_Moresby
Tekadu Airport,TKB,Tekadu,-7.6808,146.5503,PG,Pacific/Port_Moresby
Aiyura Airport,AYU,Aiyura Valley,-6.33805555556,145.904166667,PG,Pacific/Port_Moresby
Umba Airport,UMC,Umba,-7.0214,145.966,PG,Pacific/Port_Moresby
Uroubi Airport,URU,Uroubi,-9.5162,148.5591,PG,Pacific/Port_Moresby
Upiara Airport,UPR,Upiara,-8.5411,142.6503,PG,Pacific/Port_Moresby
Uvol Airport,UVO,Uvol,-6.0178,150.9557,PG,Pacific/Port_Moresby
Talasea Airport,TLW,Talasea,-5.2726,150.0089,PG,Pacific/Port_Moresby
Torembi Airport,TCJ,Torembi,-4.0165,143.1329,PG,Pacific/Port_Moresby
Vanimo Airport,VAI,Vanimo,-2.6926,141.3028,PG,Pacific/Port_Moresby
Tonu Airport,TON,Tonu,-6.6552,155.4326,PG,Pacific/Bougainville
Wabo Airport,WAO,Wabo,-6.98944444444,145.075111111,PG,Pacific/Port_Moresby
Wapenamanda Airport,WBM,Wapenamanda,-5.635293,143.892231,PG,Pacific/Port_Moresby
Wawoi Falls Airport,WAJ,Wavoi Falls,-6.9523,142.6557,PG,Pacific/Port_Moresby
Wewak International Airport,WWK,Wewak,-3.58383011818,143.669006348,PG,Pacific/Port_Moresby
Wonenara Airport,WOA,Wonenara,-6.796861111110001,145.891944444,PG,Pacific/Port_Moresby
Wakunai Airport,WKN,Wakunai,-5.8603,155.2223,PG,Pacific/Bougainville
Wasu Airport,WSU,Wasu,-5.96170944919,147.19822526,PG,Pacific/Port_Moresby
Woitape Airport,WTP,Fatima Mission,-8.54583333333,147.2525,PG,Pacific/Port_Moresby
Wau Airport,WUG,Wau,-7.345556,146.718611,PG,Pacific/Port_Moresby
Yeva Airport,YVD,Yeva,-7.548,146.188,PG,Pacific/Port_Moresby
Sim Airport,SMJ,Sim,-7.75,146.9273,PG,Pacific/Port_Moresby
Weam Airport,WEP,Weam,-8.6184,141.1381,PG,Pacific/Port_Moresby
Yalumet Airport,KYX,Yalumet,-6.09,147.0117,PG,Pacific/Port_Moresby
Yasuru Airport,KSX,Yasuru,-6.6015,146.1813,PG,Pacific/Port_Moresby
Wasum Airport,WUM,Wasum,-6.0491,149.337,PG,Pacific/Port_Moresby
Zabrat Airport,ZXT,Baku,40.4955422161,49.9768066406,AZ,Asia/Baku
Fuzuli International Airport,FZL,Fuzuli,39.594578,47.196128,AZ,Asia/Baku
Amazon Bay Airport,AZB,,-10.2991666667,149.338333333,PG,Pacific/Port_Moresby
Zhenjiang Dalu Airport,AZJ,Zhenjiang,32.23649,119.718683,CN,Asia/Shanghai
Bali Airport,BAJ,Unea Island,-4.88333333333,149.133333333,PG,Pacific/Port_Moresby
Bambu Airport,BCP,Bambu,-5.863611111110001,146.4925,PG,Pacific/Port_Moresby
Benguera Island Airport,BCW,Benguera Island,-21.8533,35.438301,MZ,Africa/Maputo
Milyakburra Airport,BCZ,Bickerton Island,-13.7808333333,136.201666667,AU,Australia/Darwin
Willmar Municipal Airport John L Rice Field (2006),ILL,Willmar,45.117552,-95.132259,US,America/Chicago
Baindoung Airport,BDZ,,-6.34722222222,146.942222222,PG,Pacific/Port_Moresby
Malevo Airfield,HKV,Malevo,41.871799,25.604799,BG,Europe/Sofia
Bezmer Air Base,JAM,Bezmer,42.454899,26.3522,BG,Europe/Sofia
Aasiaat Airport,JEG,Aasiaat,68.721802,-52.784698,GL,America/Nuuk
Narsarsuaq Airport,UAK,Narsarsuaq,61.1605,-45.425999,GL,America/Nuuk
Neerlerit Inaat Airport,CNP,Neerlerit Inaat,70.743103,-22.650499,GL,America/Scoresbysund
Nuuk Airport,GOH,Nuuk,64.193022,-51.676512,GL,America/Nuuk
Ilulissat Airport,JAV,Ilulissat,69.243202,-51.057098,GL,America/Nuuk
Kulusuk Airport,KUS,Kulusuk,65.573601,-37.1236,GL,America/Nuuk
Maniitsoq Airport,JSU,Maniitsoq,65.412498,-52.9394,GL,America/Nuuk
Paamiut Airport,JFR,Paamiut,62.014736,-49.670937,GL,America/Nuuk
Qaanaaq Airport,NAQ,Qaanaaq,77.488602,-69.388702,GL,America/Thule
Kangerlussuaq Airport,SFJ,Kangerlussuaq,67.010446,-50.715294,GL,America/Nuuk
Sisimiut Airport,JHS,Sisimiut,66.951302,-53.729301,GL,America/Nuuk
Pituffik Space Base,THU,Pituffik,76.531197,-68.703201,GL,America/Thule
Upernavik Airport,JUV,Upernavik,72.790199,-56.1306,GL,America/Nuuk
Qaarsut Airport,JQA,Uummannaq,70.7342,-52.696201,GL,America/Nuuk
Bahía de los Ángeles Airport,BHL,Ensenada,28.9786,-113.560997,MX,America/Tijuana
Brighton Downs Airport,BHT,Brighton Downs,-23.363333,141.562778,AU,Australia/Brisbane
Akureyri Airport,AEY,Akureyri,65.66000366210938,-18.07270050048828,IS,Atlantic/Reykjavik
Bildudalur Airport,BIU,Bildudalur,65.641296,-23.5462,IS,Atlantic/Reykjavik
Borgarfjörður eystri Airport,BGJ,Borgarfjörður eystri,65.516769,-13.81578,IS,Atlantic/Reykjavik
Bakkafjörður Airport,BJD,Bakkafjörður,66.02189636230469,-14.824399948120115,IS,Atlantic/Reykjavik
Hjaltabakki Airport,BLO,Blönduós,65.644997,-20.2875,IS,Atlantic/Reykjavik
Búðardalur Airport,BQD,Búðardalur,65.07530212402344,-21.80030059814453,IS,Atlantic/Reykjavik
Breiðdalsvík Airport,BXV,Breiðdalsvík,64.790037,-14.043927,IS,Atlantic/Reykjavik
Djúpivogur Airport,DJU,Djúpivogur,64.642372,-14.277297,IS,Atlantic/Reykjavik
Egilsstaðir Airport,EGS,Egilsstaðir,65.2833023071289,-14.401399612426758,IS,Atlantic/Reykjavik
Fáskrúðsfjörður Airport,FAS,Fáskrúðsfjörður,64.931456,-14.047957,IS,Atlantic/Reykjavik
Fagurhólsmýri Airport,FAG,Fagurhólsmýri,63.874699,-16.6411,IS,Atlantic/Reykjavik
Grundarfjörður Airport,GUU,Grundarfjörður,64.991402,-23.224701,IS,Atlantic/Reykjavik
Gjögur Airport,GJR,Gjögur,65.9953,-21.3269,IS,Atlantic/Reykjavik
Grímsey Airport,GRY,Grímsey,66.5458,-18.0173,IS,Atlantic/Reykjavik
Hólmavík Airport,HVK,Hólmavík,65.704697,-21.6964,IS,Atlantic/Reykjavik
Hornafjörður Airport,HFN,Höfn,64.295601,-15.2272,IS,Atlantic/Reykjavik
Holt Airport,FLI,Flateyri,66.0141804294,-23.4416913986,IS,Atlantic/Reykjavik
Húsavík Airport,HZK,Húsavík,65.952301,-17.426001,IS,Atlantic/Reykjavik
Krókstaðarmelar Airport,HVM,Hvammstangi,65.26640319824219,-20.846900939941406,IS,Atlantic/Reykjavik
Ingjaldssanður Airport,HLO,Onundarfjörður,66.05000305175781,-23.69610023498535,IS,Atlantic/Reykjavik
Ísafjörður Airport,IFJ,Ísafjörður,66.05809783935547,-23.135299682617188,IS,Atlantic/Reykjavik
Keflavik International Airport,KEF,Reykjavík,63.985001,-22.6056,IS,Atlantic/Reykjavik
Kópasker Airport,OPA,Kópasker,66.310799,-16.4667,IS,Atlantic/Reykjavik
Sauðárkrókur Airport,SAK,Sauðárkrókur,65.73169708249999,-19.5727996826,IS,Atlantic/Reykjavik
Norðfjörður Airport,NOR,Norðfjörður,65.131897,-13.7464,IS,Atlantic/Reykjavik
Ólafsfjörður Airport,OFJ,Ólafsfjörður,66.083298,-18.6667,IS,Atlantic/Reykjavik
Patreksfjörður Airport,PFJ,Patreksfjörður,65.555801,-23.965,IS,Atlantic/Reykjavik
Reykhólar Airport,RHA,Reykhólar,65.45262908935547,-22.20611572265625,IS,Atlantic/Reykjavik
Rif Airport,OLI,Rif,64.9114,-23.823099,IS,Atlantic/Reykjavik
Raufarhöfn Airport,RFN,Raufarhöfn,66.406403,-15.9183,IS,Atlantic/Reykjavik
Reykjavik Airport,RKV,Reykjavik,64.1299972534,-21.9405994415,IS,Atlantic/Reykjavik
Reykjahlíð Airport,MVA,Myvatn,65.6558,-16.9181,IS,Atlantic/Reykjavik
Siglufjörður Airport,SIJ,Siglufjörður,66.137847,-18.908157,IS,Atlantic/Reykjavik
Stykkishólmur Airport,SYK,Stykkishólmur,65.058851,-22.764616,IS,Atlantic/Reykjavik
Þingeyri Airport,TEY,Þingeyri,65.8703,-23.559999,IS,Atlantic/Reykjavik
Þórshöfn Airport,THO,Þórshöfn,66.218498,-15.3356,IS,Atlantic/Reykjavik
Vestmannaeyjar Airport,VEY,Vestmannaeyjar,63.42430114746094,-20.27890014648437,IS,Atlantic/Reykjavik
Vopnafjörður Airport,VPN,Vopnafjörður,65.720596,-14.8506,IS,Atlantic/Reykjavik
Baleela Airport,BJE,Baleela Base Camp,11.1994444444,28.5230555556,SD,Africa/Khartoum
Bahja Airport,BJQ,Bahja,19.8730555556,56.0677777778,OM,Asia/Muscat
Priština Adem Jashari International Airport,PRN,Prishtina,42.5728,21.035801,XK,Europe/Belgrade
Bomai Airport,BMH,Bomai,-6.37316666667,144.637,PG,Pacific/Port_Moresby
Bamburi Airport,BMQ,Bamburi,-3.983363,39.730982,KE,Africa/Nairobi
Bamu Airport,BMZ,Bamu,-7.8485,143.2433,PG,Pacific/Port_Moresby
Bodinumu Airport,BNM,Bodinumu,-9.10777777778,147.666722222,PG,Pacific/Port_Moresby
Bundi Airport,BNT,Bundi,-5.742222222220001,145.2275,PG,Pacific/Port_Moresby
Rurrenabaque Airport,RBQ,Rurrenabaque,-14.4279,-67.496803,BO,America/La_Paz
Baures Airport,BVL,Baures,-13.654426,-63.704718,BO,America/La_Paz
Brookings Airport,BOK,Brookings,42.0746,-124.290001,US,America/Los_Angeles
Bosset Airport,BOT,Bosset,-7.237257,141.1063222,PG,Pacific/Port_Moresby
Boang Airport,BOV,Boang Island,-3.3834,153.2812,PG,Pacific/Port_Moresby
Batuna Aerodrome,BPF,Batuna Mission Station,-8.56202777778,158.119305556,SB,Pacific/Guadalcanal
Pedro Vieira Moreira Airport,CJZ,Cajazeiras,-6.8827,-38.61583,BR,America/Fortaleza
Glauber de Andrade Rocha Airport,VDC,Vitória da Conquista,-14.907885,-40.914804,BR,America/Bahia
Alenquer Municipal Airport,ALT,Alenquer,-1.917,-54.7231,BR,America/Santarem
Bensbach Airport,BSP,Bensbach,-8.85805555556,141.259444444,PG,Pacific/Port_Moresby
Besakoa Airport,BSV,Besakoa,-15.6725,47.061667,MG,Indian/Antananarivo
Betong International Airport,BTZ,Betong,5.79,101.15,TH,Asia/Bangkok
Bulolo Airport,BUL,Bulolo,-7.216286671410001,146.649541855,PG,Pacific/Port_Moresby
Esperadinha Airport,BVR,Brava Island,14.864306,-24.746,CV,Atlantic/Cape_Verde
Hukuntsi Airport,HUK,Hukuntsi,-23.9897,21.758101,BW,Africa/Gaborone
Bawan Airport,BWJ,,-6.396944444440001,146.881666667,PG,Pacific/Port_Moresby
Bewani Airport,BWP,Bewani,-3.0216666666700003,141.165277778,PG,Pacific/Port_Moresby
Bunsil Airport,BXZ,Bunsil - Umboi Island,-5.7243,147.8667,PG,Pacific/Port_Moresby
Orsha Airport - Balbasovo Air Base,TXC,Orsha,54.439999,30.2967,BY,Europe/Minsk
Boundary Airport,BYA,Boundary,64.077678,-141.122088,US,America/Anchorage
Bella Yella Airport,BYL,Beliyela,7.36916666667,-9.99372222222,LR,Africa/Monrovia
Hector Silva Airstrip,BCV,Belmopan,17.269603,-88.776496,BZ,America/Belize
Big Creek Airport,BGK,Big Creek,16.519369,-88.407913,BZ,America/Belize
Caye Caulker Airport,CUK,Caye Caulker,17.735015,-88.032862,BZ,America/Belize
Caye Chapel Airport,CYC,Caye Chapel,17.683792,-88.044985,BZ,America/Belize
Corozal Municipal Airport,CZH,Corozal,18.3822,-88.411903,BZ,America/Belize
Dangriga Airport,DGA,Dangriga,16.98251,-88.230988,BZ,America/Belize
Independence Airport,INB,Independence,16.53456,-88.441615,BZ,America/Belize
Melinda Airport,MDB,Melinda,17.004299,-88.304199,BZ,America/Belize
Orange Walk Airport,ORZ,Orange Walk,18.0467662811,-88.58386993410001,BZ,America/Belize
Placencia Airport,PLJ,Placencia,16.536957,-88.361511,BZ,America/Belize
Punta Gorda Airport,PND,Punta Gorda,16.1024,-88.808296,BZ,America/Belize
Sartaneja Airport,SJX,Sartaneja,18.3561,-88.130798,BZ,America/Belize
John Greif II Airport,SPR,San Pedro,17.9139,-87.9711,BZ,America/Belize
Matthew Spain Airport,SQS,Spanish Lookout,17.185898,-89.009936,BZ,America/Belize
Santa Cruz Airport,STU,Santa Cruz,18.2721004486084,-88.456298828125,BZ,America/Belize
Silver Creek Airport,SVK,Silver Creek,16.728338,-88.369174,BZ,America/Belize
Sir Barry Bowen Municipal Airport,TZA,Belize City,17.517239,-88.195775,BZ,America/Belize
Bazaruto Island Airport,BZB,Bazaruto Island,-21.5411,35.4729,MZ,Africa/Maputo
Bemolanga Airport,BZM,Bemolanga,-17.6925,45.0888333333,MG,Indian/Antananarivo
Primrose Airport,PFM,Primrose,55.390002,-111.1198,CA,America/Edmonton
Saglek Airport,YSV,Saglek,58.474312,-62.653999,CA,America/Goose_Bay
Stuart Island Airstrip,YRR,Big Bay,50.409447,-125.131617,CA,America/Vancouver
Mary River Aerodrome,YMV,Mary River,71.324167,-79.356944,CA,America/Iqaluit
Paradise Skypark Airport,PYS,Paradise,39.71029,-121.616528,US,America/Los_Angeles
Trail Airport,YZZ,Trail,49.055599,-117.609001,CA,America/Vancouver
Merritt Airport,YMB,Merritt,50.122504,-120.745368,CA,America/Vancouver
Chilko Lake (Tsylos Park Lodge) Airport,CJH,Chilko Lake,51.625797,-124.144478,CA,America/Vancouver
Courtenay Airpark,YCA,Courtenay,49.679237,-124.98064,CA,America/Vancouver
Creston Valley Regional Airport - Art Sutcliffe Field,CFQ,Creston,49.03689956665,-116.49800109863,CA,America/Creston
Anahim Lake Airport,YAA,Anahim Lake,52.451501,-125.303776,CA,America/Vancouver
Douglas Lake Airport,DGF,Douglas Lake,50.1654600485,-120.171273351,CA,America/Vancouver
Fort MacKay/Albian Aerodrome,JHL,Albian Village,57.2238998413,-111.418998718,CA,America/Edmonton
Duncan Airport,DUQ,Duncan,48.754534,-123.709702,CA,America/Vancouver
Sechelt-Gibsons Airport,YHS,Sechelt,49.4606018066,-123.71900177,CA,America/Vancouver
Qualicum Beach Airport,XQU,Qualicum Beach,49.337456,-124.393086,CA,America/Vancouver
Port McNeill Airport,YMP,Port McNeill,50.57348,-127.027702,CA,America/Vancouver
Cache Creek-Ashcroft Regional Airport,YZA,Cache Creek,50.775258,-121.321314,CA,America/Vancouver
Bella Bella (Campbell Island) Airport,ZEL,Bella Bella,52.185001,-128.156994,CA,America/Vancouver
Cherrabun Airport,CBC,,-18.917777777800005,125.537777778,AU,Australia/Perth
Alberni Valley Regional Airport,YPB,Port Alberni,49.321899,-124.931,CA,America/Vancouver
Bob Quinn Lake Airport,YBO,Bob Quinn Lake,56.966702,-130.25,CA,America/Vancouver
Tungsten (Cantung) Airport,TNS,Tungsten,61.956901550293,-128.20300292969,CA,America/Inuvik
Tumbler Ridge Airport,TUX,Tumbler Ridge,55.025001525879,-120.93499755859,CA,America/Dawson_Creek
Williams Harbour Airport,YWM,Williams Harbour,52.567377,-55.784883,CA,America/St_Johns
Postville Airport,YSO,Postville,54.9105,-59.78507,CA,America/Goose_Bay
Black Tickle Airport,YBI,Black Tickle,53.469836,-55.787501,CA,America/St_Johns
Charlottetown Airport,YHG,Charlottetown,52.765774,-56.11237,CA,America/St_Johns
St. Lewis (Fox Harbour) Airport,YFX,St. Lewis,52.372799,-55.673901,CA,America/St_Johns
Port Hope Simpson Airport,YHA,Port Hope Simpson,52.528099060058594,-56.28609848022461,CA,America/St_Johns
Rigolet Airport,YRG,Rigolet,54.1796989440918,-58.45750045776367,CA,America/Goose_Bay
Kasongo-Lunda Airport,KGN,Kasongo-Lunda,-6.468027,16.805012,CD,Africa/Kinshasa
Pweto Airport (New),PWO,Pweto,-8.400768,28.926285,CD,Africa/Lubumbashi
George T Lewis Airport,CDK,Cedar Key,29.134095,-83.050783,US,America/New_York
Diavik Airport,DVK,Diavik,64.5113983154,-110.289001465,CA,America/Edmonton
Doris Lake,JOJ,Hope Bay,68.1252746582,-106.585281372,CA,America/Cambridge_Bay
Fairview Airport,ZFW,Fairview,56.081401825,-118.434997559,CA,America/Edmonton
Jasper-Hinton Airport,YJP,Hinton,53.319199,-117.752998,CA,America/Edmonton
Whatì Airport,YLE,Whatì,63.13169860839844,-117.24600219726562,CA,America/Edmonton
Drayton Valley Industrial Airport,YDC,Drayton Valley,53.265800476074,-114.95999908447,CA,America/Edmonton
Fort McMurray / Mildred Lake Airport,NML,Fort McMurray,57.0555992126,-111.573997498,CA,America/Edmonton
Conklin (Leismer) Airport,CFM,Conklin,55.695301,-111.278999,CA,America/Edmonton
St. Paul Airport,ZSP,St. Paul,53.9933013916,-111.379997253,CA,America/Edmonton
Kavadja Airport,KWD,Kavadja,7.964938,23.526018,CF,Africa/Bangui
Taltheilei Narrows Airport,GSL,Taltheilei Narrows,62.5980987549,-111.542999268,CA,America/Edmonton
Macmillan Pass Airport,XMP,Macmillan Pass,63.181098938,-130.20199585,CA,America/Whitehorse
Great Bear Lake Airport,DAS,Great Bear Lake,66.703053,-119.716816,CA,America/Edmonton
Fort Mackay / Firebag,YFI,Suncor Energy Site,57.275833,-110.976666,CA,America/Edmonton
Wekweètì Airport,YFJ,Wekweètì,64.190804,-114.077002,CA,America/Edmonton
Donnelly Airport,YOE,Donnelly,55.7094,-117.094002,CA,America/Edmonton
Cheadle Airport,TIL,Cheadle,51.057498931885,-113.62400054932,CA,America/Edmonton
Okoyo Airport,OKG,Okoyo,-1.4483300447464,15.073300361633,CG,Africa/Brazzaville
Cape Gloucester Airport,CGC,Cape Gloucester,-5.458965,148.432417,PG,Pacific/Port_Moresby
Casiguran Airport,CGG,Casiguran,16.1941,122.0651,PH,Asia/Manila
Gahcho Kue,GHK,,63.435198,-109.144812,CA,America/Edmonton
Circle Hot Springs Airport,CHP,Circle Hot Springs,65.485496521,-144.610992432,US,America/Anchorage
Laurie River Airport,LRQ,Laurie River,56.2486000061,-101.304000854,CA,America/Winnipeg
Hatchet Lake Airport,YDJ,Hatchet Lake,58.662498474121,-103.53800201416,CA,America/Regina
Kasba Lake Airport,YDU,Kasba Lake,60.291900634766,-102.50199890137,CA,America/Edmonton
Cluff Lake Airport,XCL,Cluff Lake,58.3911018372,-109.51599884,CA,America/Regina
Knee Lake Airport,YKE,Knee Lake,54.915298,-94.798103,CA,America/Winnipeg
Summer Beaver Airport,SUR,Summer Beaver,52.70859909057617,-88.54190063476562,CA,America/Toronto
Crooked Creek Airport,CKD,Crooked Creek,61.870315,-158.137636,US,America/Anchorage
Tisdale Airport,YTT,Tisdale,52.836700439453,-104.06700134277,CA,America/Regina
Wapekeka Airport,YAX,Angling Lake,53.84920120239258,-89.57939910888672,CA,America/Winnipeg
Wunnumin Lake Airport,WNN,Wunnumin Lake,52.893902,-89.2892,CA,America/Winnipeg
Opapimiskan Lake Airport,YBS,Opapimiskan Lake,52.6067008972,-90.3768997192,CA,America/Winnipeg
North Spirit Lake Airport,YNO,North Spirit Lake,52.4900016784668,-92.97109985351562,CA,America/Winnipeg
Crane Island Airstrip,CKR,Crane Island,48.5978,-122.9979,US,America/Los_Angeles
Cordova Municipal Airport,CKU,Cordova,60.5438995361,-145.727005005,US,America/Anchorage
North of Sixty Airport,YDW,Obre Lake,60.316398620605,-103.12899780273,CA,America/Edmonton
Chicken Airport,CKX,Chicken,64.066495,-141.951342,US,America/Anchorage
Nuevo Chaitén Airport,WCH,Chaitén,-42.781943,-72.834999,CL,America/Santiago
New Cametá Airport,CMT,Cametá,-2.2468,-49.56,BR,America/Belem
Caia Airport,CMZ,Caia,-17.8331,35.3341,MZ,Africa/Maputo
Tangshan Sannühe Airport,TVS,Tangshan,39.7178001404,118.002624512,CN,Asia/Shanghai
Yuanmou Air Base,YUA,Chuxiong (Yuanmou),25.737499,101.882004,CN,Asia/Shanghai
Zhangjiakou Ningyuan Airport,ZQZ,Zhangjiakou,40.738602,114.93,CN,Asia/Shanghai
Baoshan Yunrui Airport,BSD,Baoshan (Longyang),25.053301,99.168297,CN,Asia/Shanghai
Dazu Air Base,DZU,Dazu,29.636227,105.773621,CN,Asia/Shanghai
Lincang Boshang Airport,LNJ,Lincang,23.7381,100.025002,CN,Asia/Shanghai
Xigaze Peace Airport / Shigatse Air Base,RKZ,Xigazê (Samzhubzê),29.3519,89.311401,CN,Asia/Shanghai
Panzhihua Bao'anying Airport,PZI,Panzhihua (Renhe),26.54,101.79852,CN,Asia/Shanghai
Zigong Fengming Airport,ZKL,Zigong (Gongjing),29.376484,104.625789,CN,Asia/Shanghai
Foshan Shadi Airport,FUO,Foshan (Nanhai),23.0833,113.07,CN,Asia/Shanghai
Bazhong Enyang Airport,BZX,Bazhong (Enyang),31.73842,106.644872,CN,Asia/Shanghai
Xinyang Minggang Airport,XAI,Xinyang,32.540819,114.079141,CN,Asia/Shanghai
Huizhou Pingtan Airport,HUZ,Huizhou (Pingtan),23.049999,114.599998,CN,Asia/Shanghai
Shangluo Airport,DFA,Shangluo (Danfeng),33.708533,110.249284,CN,Asia/Shanghai
Shaoguan Danxia Airport,HSC,Shaoguan,24.9786,113.420998,CN,Asia/Shanghai
Jinggangshan Airport,JGS,Ji'an,26.856899,114.737,CN,Asia/Shanghai
Baise Youjiang Airport,AEB,Baise (Tianyang),23.7206,106.959999,CN,Asia/Shanghai
Lianyungang Huaguoshan International Airport,LYG,Lianyungang,34.41406,119.17899,CN,Asia/Shanghai
Dongying Shengli Airport,DOY,Dongying,37.5085983276,118.788002014,CN,Asia/Shanghai
Xingcheng Air Base,XEN,"Xingcheng, Huludao",40.580328,120.700374,CN,Asia/Shanghai
Altay Xuedu Airport,AAT,Altay,47.749886,88.085808,CN,Asia/Urumqi
Tianshui Maijishan Airport,THQ,Tianshui (Maiji),34.559399,105.860001,CN,Asia/Shanghai
Zhangye Ganzhou Airport,YZY,Zhangye (Ganzhou),38.801899,100.675003,CN,Asia/Shanghai
Morin Dawa Banner Airport,DWS,Hulunbuir,48.38745,124.43127,CN,Asia/Shanghai
Shijiazhuang Luancheng Airport,LCT,Shijiazhuang,37.91305,114.59166,CN,Asia/Shanghai
Wuhan Hannan Municipal Airport,WHN,Wuhan (Hannan),30.25521,114.062805,CN,Asia/Shanghai
Beijing Nanjiao Airport,NAY,Beijing,39.48595,116.37236,CN,Asia/Shanghai
Dandong Langtou Airport,DDG,"Zhenxing, Dandong",40.0247,124.286003,CN,Asia/Shanghai
Harbin Pingfang Airport,PFA,Harbin,45.59886,126.65808,CN,Asia/Shanghai
Penglai Shahekou Airport,PNJ,Yantai,37.80473,120.80954,CN,Asia/Shanghai
Binzhou Daguo Airport,CBZ,Binzhou,37.61055,117.885699,CN,Asia/Shanghai
Rikaze Dingri Airport,DDR,Xigazê (Dingri),28.604567,86.798,CN,Asia/Shanghai
Tashikuergan Hongqilafu Airport,HQL,Tashikuergan,37.661333,75.288877,CN,Asia/Urumqi
Jiande Qiandaohu General Airport,JDE,Hangzhou,29.360905,119.180829,CN,Asia/Shanghai
Zhaodong Beidahuang General Airport,HLJ,Suihua,46.12779,125.77354,CN,Asia/Shanghai
Taiyuan Yaocheng Airport,TYC,Taiyuan,37.50312,112.424126,CN,Asia/Shanghai
Orku Baikouquan Airport (under construction),WRH,Urhu,46.018127,85.655293,CN,Asia/Urumqi
Zhanjiang Wuchuan Airport,ZHA,Zhanjiang,21.481667,110.590278,CN,Asia/Shanghai
Ali Pulan Airport,APJ,Burang Town,30.3975,81.138611,CN,Asia/Shanghai
Zhaosu Tianma Airport,ZFL,Zhaosu,43.088477,81.223013,CN,Asia/Urumqi
Yinchuan Yueyahu Airport,YEH,Yinchuan,38.588095,106.539788,CN,Asia/Shanghai
Longchuan Guangsong Airport,LCS,Dehong (Longchuan),24.26652,97.9048,CN,Asia/Shanghai
Lanping Fenghua General Airport,LFH,Lanping Bai,26.64518,99.54419,CN,Asia/Shanghai
Bozhou Airport (under construction),BZJ,Bozhou,33.560777,115.911859,CN,Asia/Shanghai
Bailing Airport,BKV,Bailingmiao,41.656944,110.3125,CN,Asia/Shanghai
"Bayinbuluke airport (under construction, location to be confirmed)",HJB,Hejing,42.9766,83.9729,CN,Asia/Urumqi
Otog Front Banner Oljoq Airport,OTQ,Otog Front Banner,38.1712,107.3905,CN,Asia/Shanghai
Qitai Jiangbulake Airport (under construction),JBK,Qitai,44.166086,89.55014,CN,Asia/Urumqi
Nantong Xingdong International Airport,NTG,Nantong,32.070801,120.975998,CN,Asia/Shanghai
Bearskin Lake Airport,XBE,Bearskin Lake,53.965599060058594,-91.0271987915039,CA,America/Winnipeg
Natuashish Airport,YNP,Natuashish,55.913898,-61.184399,CA,America/Goose_Bay
Parry Sound Area Municipal Airport,YPD,Parry Sound,45.2575,-79.829697,CA,America/Toronto
Brockville - Thousand Islands Regional Tackaberry Airport,XBR,Brockville,44.6394004822,-75.7502975464,CA,America/Toronto
Kingfisher Lake Airport,KIF,Kingfisher Lake,53.01250076293945,-89.85530090332031,CA,America/Winnipeg
Ogoki Post Airport,YOG,Ogoki Post,51.6585998535,-85.9017028809,CA,America/Toronto
La Chorrera Airport,LCR,La Chorrera,-0.733333,-73.01667,CO,America/Bogota
Las Cruces Airport,SNT,Sabana De Torres,7.38322,-73.505402,CO,America/Bogota
Tarapacá Airport,TCD,Tarapacá,-2.895802,-69.749762,CO,America/Bogota
Bar River Airport,YEB,Bar River,46.42029953,-84.0922012329,CA,America/Toronto
Cape Orford Airport,CPI,,-5.44833333333,152.081944444,PG,Pacific/Port_Moresby
Poplar Hill Airport,YHP,Poplar Hill,52.1133,-94.2556,CA,America/Winnipeg
Keewaywin Airport,KEW,Keewaywin,52.9911,-92.836403,CA,America/Winnipeg
Cóbano Airport,ACO,Cóbano,9.693365,-85.091216,CR,America/Costa_Rica
Kirby Lake Airport,KFM,Kirby Lake,55.355598,-110.637001,CA,America/Edmonton
Sable Island Landing Strip,YSA,Sable Island,43.930951,-59.996147,CA,America/Halifax
Lebel-sur-Quevillon Airport,YLS,Lebel-sur-Quévillon,49.0303001404,-77.0171966553,CA,America/Toronto
Snap Lake Airport,YNX,Snap Lake Mine,63.593601,-110.905998,CA,America/Edmonton
La Sarre Airport,SSQ,La Sarre,48.917198181152,-79.178596496582,CA,America/Toronto
Chisasibi Airport,YKU,Chisasibi,53.80559921264648,-78.91690063476562,CA,America/Toronto
Tête-à-la-Baleine Airport,ZTB,Tête-à-la-Baleine,50.67440032958984,-59.38359832763672,CA,America/Blanc-Sablon
Kegaska Airport,ZKG,Kegaska,50.195801,-61.2658,CA,America/Blanc-Sablon
Carutapera Airport,CTP,Carutapera,-1.225365,-46.019057,BR,America/Fortaleza
Donaldson Airport,YAU,Kattiniq,61.6622009277,-73.3214035034,CA,America/Toronto
La Romaine Airport,ZGS,La Romaine,50.259553,-60.674357,CA,America/Blanc-Sablon
Fontanges Airport,YFG,Fontanges,54.553901672363,-71.173301696777,CA,America/Toronto
La Tabatière Airport,ZLT,La Tabatière,50.8307991027832,-58.97560119628906,CA,America/Blanc-Sablon
Culion Airport,CUJ,Culion,11.8553,119.9378,PH,Asia/Manila
Hollister Municipal Airport,HLI,Hollister,36.8932991028,-121.410003662,US,America/Los_Angeles
Cape Vogel Airport,CVL,,-9.67,150.019722222,PG,Pacific/Port_Moresby
Chitina Airport,CXC,Chitina,61.582901001,-144.427001953,US,America/Anchorage
Lefkoniko Airport / Geçitkale Air Base,GEC,Lefkoniko (Geçitkale),35.23591,33.720088,CY,Asia/Famagusta
Arctic Bay Airport,YAB,Arctic Bay,73.006101,-85.04616,CA,America/Rankin_Inlet
Cat Lake Airport,YAC,Cat Lake,51.7272,-91.824402,CA,America/Winnipeg
La Grande-3 Airport,YAR,La Grande-3,53.5717010498,-76.19640350339999,CA,America/Toronto
Fort Frances Municipal Airport,YAG,Fort Frances,48.655749,-93.44349,CA,America/Winnipeg
La Grande-4 Airport,YAH,La Grande-4,53.754699707,-73.6753005981,CA,America/Toronto
Alert Bay Airport,YAL,Alert Bay,50.582199,-126.916,CA,America/Vancouver
Sault Ste Marie Airport,YAM,Sault Ste Marie,46.483216,-84.508467,CA,America/Toronto
Kasabonika Airport,XKS,Kasabonika,53.52470016479492,-88.6427993774414,CA,America/Winnipeg
Kangirsuk Airport,YKG,Kangirsuk,60.027199,-69.999199,CA,America/Toronto
Attawapiskat Airport,YAT,Attawapiskat,52.927502,-82.4319,CA,America/Toronto
St. Anthony Airport,YAY,St. Anthony,51.391909,-56.08321,CA,America/St_Johns
Tofino / Long Beach Airport,YAZ,Tofino,49.079833,-125.775583,CA,America/Vancouver
Banff Airport,YBA,Banff,51.208222,-115.540624,CA,America/Edmonton
Kugaaruk Airport,YBB,Kugaaruk,68.535711,-89.805508,CA,America/Cambridge_Bay
Baie-Comeau Airport,YBC,Baie-Comeau,49.1325,-68.204399,CA,America/Toronto
Bella Coola Airport,QBC,Bella Coola,52.387501,-126.596001,CA,America/Vancouver
Uranium City Airport,YBE,Uranium City,59.561401,-108.481003,CA,America/Regina
Bonnyville Airport,YBY,Bonnyville,54.304199,-110.744003,CA,America/Edmonton
CFB Bagotville / Saguenay-Bagotville Airport,YBG,La Baie,48.331908,-70.992909,CA,America/Toronto
Baker Lake Airport,YBK,Baker Lake,64.29889678960001,-96.077796936,CA,America/Rankin_Inlet
Campbell River Airport,YBL,Campbell River,49.950802,-125.271004,CA,America/Vancouver
Tadoule Lake Airport,XTL,Tadoule Lake,58.706308,-98.511057,CA,America/Winnipeg
Brandon Municipal Airport,YBR,Brandon,49.91,-99.951897,CA,America/Winnipeg
Brochet Airport,YBT,Brochet,57.8894,-101.679001,CA,America/Winnipeg
Berens River Airport,YBV,Berens River,52.358898,-97.018303,CA,America/Winnipeg
Lourdes-de-Blanc-Sablon Airport,YBX,Blanc-Sablon,51.4436,-57.185299,CA,America/Blanc-Sablon
Cartwright Airport,YRF,Cartwright,53.682501,-57.042303,CA,America/Goose_Bay
Cambridge Bay Airport,YCB,Cambridge Bay,69.1081008911,-105.138000488,CA,America/Cambridge_Bay
Cornwall Regional Airport,YCC,Cornwall,45.092637,-74.567724,CA,America/Toronto
Nanaimo Airport,YCD,Nanaimo,49.05497,-123.869863,CA,America/Vancouver
Centralia / James T. Field Memorial Aerodrome,YCE,Huron Park,43.285599,-81.508301,CA,America/Toronto
Castlegar/West Kootenay Regional Airport,YCG,Castlegar,49.2963981628,-117.632003784,CA,America/Vancouver
Miramichi Airport,YCH,Miramichi,47.007801,-65.449203,CA,America/Moncton
Chatham Kent Airport,XCM,Chatham-Kent,42.3064002991,-82.0819015503,CA,America/Toronto
Charlo Airport,YCL,Charlo,47.990799,-66.330299,CA,America/Moncton
Cochrane Airport,YCN,Cochrane,49.10559844970703,-81.01360321044922,CA,America/Toronto
Kugluktuk Airport,YCO,Kugluktuk,67.816408,-115.14307,CA,America/Cambridge_Bay
Chetwynd Airport,YCQ,Chetwynd,55.687198638916016,-121.6269989013672,CA,America/Dawson_Creek
Cross Lake (Charlie Sinclair Memorial) Airport,YCR,Cross Lake,54.609758,-97.762442,CA,America/Winnipeg
Chesterfield Inlet Airport,YCS,Chesterfield Inlet,63.346901,-90.731102,CA,America/Rankin_Inlet
Coronation Airport,YCT,Coronation,52.0750007629,-111.444999695,CA,America/Edmonton
Chilliwack Airport,YCW,Chilliwack,49.153157,-121.939309,CA,America/Vancouver
Clyde River Airport,YCY,Clyde River,70.486099,-68.516701,CA,America/Iqaluit
Fairmont Hot Springs Airport,YCZ,Fairmont Hot Springs,50.331052,-115.873739,CA,America/Edmonton
Dawson City Airport,YDA,Dawson City,64.04309844970703,-139.1280059814453,CA,America/Dawson
Burwash Airport,YDB,Burwash Landing,61.371101,-139.041,CA,America/Dawson
Deer Lake Airport,YDF,Deer Lake,49.21080017089844,-57.39139938354492,CA,America/St_Johns
Dease Lake Airport,YDL,Dease Lake,58.422199,-130.031998,CA,America/Vancouver
Ross River Airport,XRR,Ross River,61.9706001282,-132.42300415,CA,America/Whitehorse
Dauphin Barker Airport,YDN,Dauphin,51.1008,-100.052002,CA,America/Winnipeg
Dolbeau St Felicien Airport,YDO,Dolbeau-St-Félicien,48.778499603271,-72.375,CA,America/Toronto
Nain Airport,YDP,Nain,56.550778,-61.682224,CA,America/Goose_Bay
Dawson Creek Airport,YDQ,Dawson Creek,55.741245,-120.183263,CA,America/Dawson_Creek
Edmonton International Airport,YEG,Edmonton,53.3097,-113.580002,CA,America/Edmonton
Arviat Airport,YEK,Arviat,61.0942,-94.070801,CA,America/Rankin_Inlet
Elliot Lake Municipal Airport,YEL,Elliot Lake,46.351398468,-82.5614013672,CA,America/Toronto
Manitoulin East Municipal Airport,YEM,Sheguiandah,45.842435,-81.857595,CA,America/Toronto
Estevan Airport,YEN,Estevan,49.2103004456,-102.966003418,CA,America/Regina
Fort Severn Airport,YER,Fort Severn,56.018902,-87.676102,CA,America/Toronto
Edson Airport,YET,Edson,53.5788993835,-116.464996338,CA,America/Edmonton
Eureka Airport,YEU,Eureka,79.9946975708,-85.814201355,CA,America/Atikokan
Inuvik Mike Zubko Airport,YEV,Inuvik,68.30419921880001,-133.483001709,CA,America/Inuvik
Amos/Magny Airport,YEY,Amos,48.563903,-78.249702,CA,America/Toronto
Fort Albany Airport,YFA,Fort Albany,52.203451,-81.695194,CA,America/Toronto
Iqaluit Airport,YFB,Iqaluit,63.756402,-68.555801,CA,America/Iqaluit
Fredericton Airport,YFC,Fredericton,45.868900299072266,-66.53720092773438,CA,America/Moncton
Forestville Airport,YFE,Forestville,48.74610137939453,-69.09719848632812,CA,America/Toronto
Fort Hope Airport,YFH,Fort Hope,51.561901,-87.907799,CA,America/Toronto
Mont-Tremblant International Airport,YTM,La Macaza,46.409401,-74.779999,CA,America/Toronto
Flin Flon Airport,YFO,Flin Flon,54.678101,-101.681999,CA,America/Winnipeg
Fort Resolution Airport,YFR,Fort Resolution,61.1808013916,-113.690002441,CA,America/Edmonton
Fort Simpson Airport,YFS,Fort Simpson,61.76020050048828,-121.23699951171876,CA,America/Inuvik
Makkovik Airport,YMN,Makkovik,55.077335,-59.187942,CA,America/Goose_Bay
Texada Gillies Bay Airport,YGB,Texada,49.694341,-124.518099,CA,America/Vancouver
Fort Good Hope Airport,YGH,Fort Good Hope,66.240658,-128.647757,CA,America/Inuvik
Kingston Norman Rogers Airport,YGK,Kingston,44.2253,-76.596901,CA,America/Toronto
La Grande Rivière Airport,YGL,La Grande Rivière,53.625301361083984,-77.7042007446289,CA,America/Toronto
Gimli Industrial Park Airport,YGM,Gimli,50.62810134887695,-97.04329681396484,CA,America/Winnipeg
Gods Lake Narrows Airport,YGO,Gods Lake Narrows,54.55768,-94.490061,CA,America/Winnipeg
Michel-Pouliot Gaspé Airport,YGP,Gaspé,48.774915,-64.481893,CA,America/Toronto
Geraldton Greenstone Regional Airport,YGQ,Geraldton,49.77830123901367,-86.93939971923828,CA,America/Toronto
Îles-de-la-Madeleine Airport,YGR,Les Îles-de-la-Madeleine,47.425242,-61.778612,CA,America/Halifax
Igloolik Airport,YGT,Igloolik,69.3647,-81.816101,CA,America/Iqaluit
Havre-Saint-Pierre Airport,YGV,Havre-Saint-Pierre,50.281898,-63.611401,CA,America/Toronto
Kuujjuarapik Airport,YGW,Kuujjuarapik,55.28189849853516,-77.76529693603516,CA,America/Toronto
Gillam Airport,YGX,Gillam,56.35712,-94.711504,CA,America/Winnipeg
Grise Fiord Airport,YGZ,Grise Fiord,76.425823,-82.908583,CA,America/Iqaluit
Quaqtaq Airport,YQC,Quaqtaq,61.046398,-69.617798,CA,America/Toronto
Hudson Bay Airport,YHB,Hudson Bay,52.8166999817,-102.310997009,CA,America/Regina
Dryden Regional Airport,YHD,Dryden,49.831699,-92.744202,CA,America/Winnipeg
Hope Airport / FVRD Regional Airpark,YHE,Hope,49.368865,-121.49495,CA,America/Vancouver
Hearst René Fontaine Municipal Airport,YHF,Hearst,49.71419906616211,-83.68609619140625,CA,America/Toronto
Nemiscau Airport,YNS,Nemiscau,51.691101,-76.135597,CA,America/Toronto
Ulukhaktok Holman Airport,YHI,Ulukhaktok,70.762802,-117.806,CA,America/Edmonton
Gjoa Haven Airport,YHK,Gjoa Haven,68.635597,-95.849701,CA,America/Cambridge_Bay
John C. Munro Hamilton International Airport,YHM,Hamilton,43.1735992432,-79.93499755859999,CA,America/Toronto
Hornepayne Municipal Airport,YHN,Hornepayne,49.19309997558594,-84.75890350341797,CA,America/Toronto
Hopedale Airport,YHO,Hopedale,55.448757,-60.228124,CA,America/Goose_Bay
Chevery Airport,YHR,Chevery,50.468322,-59.637823,CA,America/Blanc-Sablon
Haines Junction Airport,YHT,Haines Junction,60.7892,-137.546005,CA,America/Whitehorse
Montréal / Saint-Hubert Airport,YHU,Montréal,45.5175018311,-73.4169006348,CA,America/Toronto
Hay River / Merlyn Carter Airport,YHY,Hay River,60.8396987915,-115.782997131,CA,America/Edmonton
Halifax / Stanfield International Airport,YHZ,Halifax,44.8807983398,-63.5085983276,CA,America/Halifax
Atikokan Municipal Airport,YIB,Atikokan,48.7738990784,-91.6386032104,CA,America/Atikokan
Digby / Annapolis Regional Airport,YDG,Digby,44.5458450365,-65.7854247093,CA,America/Halifax
St Augustin Airport,YIF,St-Augustin,51.2117,-58.658298,CA,America/Blanc-Sablon
Ivujivik Airport,YIK,Ivujivik,62.417301,-77.925301,CA,America/Toronto
Pond Inlet Airport,YIO,Pond Inlet,72.689494,-77.968941,CA,America/Iqaluit
Island Lake Airport,YIV,Island Lake,53.857200622558594,-94.65360260009766,CA,America/Winnipeg
Jasper Airport,YJA,Jasper,52.996418,-118.060233,CA,America/Edmonton
Fort Liard Airport,YJF,Fort Liard,60.2358016968,-123.46900177,CA,America/Inuvik
St Jean Airport,YJN,St Jean,45.29439926147461,-73.28109741210938,CA,America/Toronto
Stephenville Airport,YJT,Stephenville,48.544201,-58.549999,CA,America/St_Johns
Kamloops John Moose Fulton Field Regional Airport,YKA,Kamloops,50.703038,-120.448641,CA,America/Vancouver
Collins Bay Airport,YKC,Collins Bay,58.2360992432,-103.678001404,CA,America/Regina
Aklavik/Freddie Carmichael Airport,LAK,Aklavik,68.223297,-135.00599,CA,America/Inuvik
Region of Waterloo International Airport,YKF,Kitchener,43.4608,-80.378601,CA,America/Toronto
Kangiqsujuaq (Wakeham Bay) Airport,YWB,Kangiqsujuaq,61.5886,-71.929398,CA,America/Toronto
Key Lake Airport,YKJ,Key Lake,57.25609970092773,-105.61799621582033,CA,America/Regina
Schefferville Airport,YKL,Schefferville,54.805301666259766,-66.8052978515625,CA,America/Toronto
Kincardine Municipal Airport,YKD,Kincardine,44.201401,-81.606697,CA,America/Toronto
Akulivik Airport,AKV,Akulivik,60.8186,-78.148598,CA,America/Toronto
Waskaganish Airport,YKQ,Waskaganish,51.473301,-78.758301,CA,America/Toronto
Kirkland Lake Airport,YKX,Kirkland Lake,48.21030044555664,-79.98139953613281,CA,America/Toronto
Kindersley Airport,YKY,Kindersley,51.5175018311,-109.180999756,CA,America/Swift_Current
Aupaluk Airport,YPJ,Aupaluk,59.2967,-69.599701,CA,America/Toronto
Lac La Biche Airport,YLB,Lac La Biche,54.7703018188,-112.031997681,CA,America/Edmonton
Kimmirut Airport,YLC,Kimmirut,62.848253,-69.877853,CA,America/Iqaluit
Chapleau Airport,YLD,Chapleau,47.81999969482422,-83.3467025756836,CA,America/Toronto
Lansdowne House Airport,YLH,Lansdowne House,52.195599,-87.934196,CA,America/Toronto
Meadow Lake Airport,YLJ,Meadow Lake,54.125301361083984,-108.52300262451172,CA,America/Swift_Current
Lutselk'e Airport,YSG,Lutselk'e,62.417823,-110.682793,CA,America/Edmonton
Lloydminster Airport,YLL,Lloydminster,53.309200286865234,-110.072998046875,CA,America/Edmonton
La Tuque Airport,YLQ,La Tuque,47.4096984863,-72.7889022827,CA,America/Toronto
Leaf Rapids Airport,YLR,Leaf Rapids,56.513301849365234,-99.98529815673828,CA,America/Winnipeg
Barrie-Lake Simcoe Regional Airport,YLK,Barrie,44.485056,-79.554663,CA,America/Toronto
Alert Airport,YLT,Alert,82.517799,-62.280602,CA,America/Iqaluit
Kangiqsualujjuaq (Georges River) Airport,XGR,Kangiqsualujjuaq,58.711399,-65.992798,CA,America/Toronto
Kelowna International Airport,YLW,Kelowna,49.9561,-119.377998,CA,America/Vancouver
Mayo Airport,YMA,Mayo,63.61640167236328,-135.8679962158203,CA,America/Whitehorse
Matane Airport,YME,Matane,48.85689926147461,-67.45330047607422,CA,America/Toronto
Manitouwadge Airport,YMG,Manitouwadge,49.08390045166016,-85.86060333251953,CA,America/Toronto
Mary's Harbour Airport,YMH,Mary's Harbour,52.302837,-55.847433,CA,America/St_Johns
Moose Jaw Air Vice Marshal C. M. McEwen Airport,YMJ,Moose Jaw,50.330299377441406,-105.55899810791016,CA,America/Regina
Charlevoix Airport,YML,Charlevoix,47.59749984741211,-70.2238998413086,CA,America/Toronto
Fort McMurray Airport,YMM,Fort McMurray,56.653301239,-111.222000122,CA,America/Edmonton
Moosonee Airport,YMO,Moosonee,51.29109954833984,-80.60780334472656,CA,America/Toronto
Chapais Airport,YMT,Chibougamau,49.77190017700195,-74.5280990600586,CA,America/Toronto
Umiujaq Airport,YUD,Umiujaq,56.536098,-76.518303,CA,America/Toronto
Maniwaki Airport,YMW,Messines,46.2728,-75.990601,CA,America/Toronto
Montreal International (Mirabel) Airport,YMX,Montréal,45.679501,-74.038696,CA,America/Toronto
Natashquan Airport,YNA,Natashquan,50.18999862670898,-61.78919982910156,CA,America/Blanc-Sablon
Wemindji Airport,YNC,Wemindji,53.010601,-78.8311,CA,America/Toronto
Ottawa / Gatineau Airport,YND,Gatineau,45.521702,-75.563599,CA,America/Toronto
Norway House Airport,YNE,Norway House,53.958302,-97.8442,CA,America/Winnipeg
Hudson's Hope Airport,YNH,Hudson's Hope,56.035142,-121.978326,CA,America/Dawson_Creek
Langley Airport,YLY,Langley,49.1008,-122.630997,CA,America/Vancouver
Points North Landing Airport,YNL,Points North Landing,58.27669906616211,-104.08200073242188,CA,America/Regina
Matagami Airport,YNM,Matagami,49.76169967651367,-77.80280303955078,CA,America/Toronto
Fort Mackay / Horizon Airport,HZP,Fort Mackay,57.3816986084,-111.700996399,CA,America/Edmonton
Ekati Airport,YOA,Ekati,64.6988983154,-110.614997864,CA,America/Edmonton
Old Crow Airport,YOC,Old Crow,67.570602,-139.839005,CA,America/Dawson
CFB Cold Lake,YOD,Cold Lake,54.40499877929688,-110.27899932861328,CA,America/Edmonton
Oxford House Airport,YOH,Oxford House,54.9333,-95.2789,CA,America/Winnipeg
High Level Airport,YOJ,High Level,58.62139892578125,-117.16500091552734,CA,America/Edmonton
Oshawa Executive Airport,YOO,Oshawa,43.922798,-78.894997,CA,America/Toronto
Rainbow Lake Airport,YOP,Rainbow Lake,58.491402,-119.407997,CA,America/Edmonton
Owen Sound / Billy Bishop Regional Airport,YOS,Owen Sound,44.5903015137,-80.8375015259,CA,America/Toronto
Ottawa Macdonald-Cartier International Airport,YOW,Ottawa,45.322498,-75.669197,CA,America/Toronto
Prince Albert Glass Field,YPA,Prince Albert,53.2141990662,-105.672996521,CA,America/Regina
Paulatuk (Nora Aliqatchialuk Ruben) Airport,YPC,Paulatuk,69.360838,-124.07547,CA,America/Inuvik
Port Hawkesbury Airport,YPS,Port Hawkesbury,45.6567001343,-61.3680992126,CA,America/Glace_Bay
Peace River Airport,YPE,Peace River,56.226898,-117.446999,CA,America/Edmonton
Portage-la-Prairie / Southport Airport,YPG,Portage la Prairie,49.903099,-98.273817,CA,America/Winnipeg
Inukjuak Airport,YPH,Inukjuak,58.471901,-78.076897,CA,America/Toronto
Pickle Lake Airport,YPL,Pickle Lake,51.4463996887207,-90.21420288085938,CA,America/Atikokan
Pikangikum Airport,YPM,Pikangikum,51.819698,-93.973297,CA,America/Winnipeg
Port-Menier Airport,YPN,Port-Menier,49.836399,-64.288597,CA,America/Toronto
Peawanuck Airport,YPO,Peawanuck,54.987932,-85.442648,CA,America/Toronto
Peterborough Municipal Airport,YPQ,Peterborough,44.23,-78.363297,CA,America/Toronto
Prince Rupert Airport,YPR,Prince Rupert,54.2860984802,-130.445007324,CA,America/Vancouver
Powell River Airport,YPW,Powell River,49.83420181274414,-124.5,CA,America/Vancouver
Puvirnituq Airport,YPX,Puvirnituq,60.050598,-77.286903,CA,America/Toronto
Fort Chipewyan Airport,YPY,Fort Chipewyan,58.7672004699707,-111.11699676513672,CA,America/Edmonton
Burns Lake Airport,YPZ,Burns Lake,54.3764,-125.950996,CA,America/Vancouver
Muskoka Airport,YQA,Muskoka,44.974757,-79.306526,CA,America/Toronto
Quebec Jean Lesage International Airport,YQB,Quebec,46.7911,-71.393303,CA,America/Toronto
The Pas Airport,YQD,The Pas,53.97140121459961,-101.09100341796876,CA,America/Winnipeg
Red Deer Regional Airport,YQF,Springbrook,52.182201,-113.893997,CA,America/Edmonton
Windsor Airport,YQG,Windsor,42.27560043334961,-82.95559692382812,CA,America/Toronto
Watson Lake Airport,YQH,Watson Lake,60.116839,-128.821993,CA,America/Whitehorse
Yarmouth Airport,YQI,Yarmouth,43.82690048217773,-66.08809661865234,CA,America/Halifax
Kenora Airport,YQK,Kenora,49.78829956054688,-94.36309814453124,CA,America/Winnipeg
Lethbridge County Airport,YQL,Lethbridge,49.6302986145,-112.800003052,CA,America/Edmonton
Greater Moncton Roméo LeBlanc International Airport,YQM,Moncton,46.112202,-64.678596,CA,America/Moncton
Nakina Airport,YQN,Nakina,50.18280029296875,-86.69640350341797,CA,America/Toronto
Comox Valley Airport / CFB Comox,YQQ,Comox,49.7108,-124.887001,CA,America/Vancouver
Regina International Airport,YQR,Regina,50.43190002441406,-104.66600036621094,CA,America/Regina
St Thomas Municipal Airport,YQS,St Thomas,42.77000045776367,-81.11080169677734,CA,America/Toronto
Thunder Bay Airport,YQT,Thunder Bay,48.37189865112305,-89.32389831542969,CA,America/Toronto
Grande Prairie Airport,YQU,Grande Prairie,55.1796989441,-118.885002136,CA,America/Edmonton
Yorkton Municipal Airport,YQV,Yorkton,51.26470184326172,-102.46199798583984,CA,America/Regina
North Battleford Airport,YQW,North Battleford,52.769409,-108.243742,CA,America/Swift_Current
Gander International Airport / CFB Gander,YQX,Gander,48.936258,-54.567719,CA,America/St_Johns
Sydney / J.A. Douglas McCurdy Airport,YQY,Sydney,46.1614,-60.047798,CA,America/Glace_Bay
Quesnel Airport,YQZ,Quesnel,53.026100158691406,-122.51000213623048,CA,America/Vancouver
Rae Lakes Airport,YRA,Gamètì,64.116096,-117.309998,CA,America/Edmonton
Resolute Bay Airport,YRB,Resolute Bay,74.7169036865,-94.9693984985,CA,America/Resolute
Rivière-du-Loup Airport,YRI,Rivière-du-Loup,47.76440048217773,-69.58470153808594,CA,America/Toronto
Roberval Airport,YRJ,Roberval,48.52000045776367,-72.2656021118164,CA,America/Toronto
Red Lake Airport,YRL,Red Lake,51.06689834594727,-93.79309844970705,CA,America/Winnipeg
Rocky Mountain House Airport,YRM,Rocky Mountain House,52.4296989441,-114.903999329,CA,America/Edmonton
Ottawa / Rockcliffe Airport,YRO,Ottawa,45.4603004456,-75.64610290530001,CA,America/Toronto
Trois-Rivières Airport,YRQ,Trois-Rivières,46.35279846191406,-72.67939758300781,CA,America/Toronto
Red Sucker Lake Airport,YRS,Red Sucker Lake,54.167198,-93.557198,CA,America/Winnipeg
Rankin Inlet Airport,YRT,Rankin Inlet,62.8114013672,-92.1157989502,CA,America/Rankin_Inlet
Revelstoke Airport,YRV,Revelstoke,50.962245,-118.184258,CA,America/Vancouver
Sudbury Airport,YSB,Sudbury,46.625,-80.79889678955078,CA,America/Toronto
Sherbrooke Airport,YSC,Sherbrooke,45.438599,-71.691399,CA,America/Toronto
Squamish Airport,YSE,Squamish,49.7817001343,-123.162002563,CA,America/Vancouver
Stony Rapids Airport,YSF,Stony Rapids,59.250301361083984,-105.84100341796876,CA,America/Regina
Smiths Falls-Montague (Russ Beach) Airport,YSH,Smiths Falls,44.945801,-75.940598,CA,America/Toronto
Saint John Airport,YSJ,Saint John,45.31610107421875,-65.89029693603516,CA,America/Moncton
Sanikiluaq Airport,YSK,Sanikiluaq,56.536891,-79.250221,CA,America/Iqaluit
Saint-Léonard Airport,YSL,Saint-Léonard,47.157097,-67.836242,CA,America/Moncton
Fort Smith Airport,YSM,Fort Smith,60.020302,-111.961998,CA,America/Edmonton
Niagara District Airport,YCM,Niagara-on-the-Lake,43.191598,-79.171686,CA,America/Toronto
Marathon Airport,YSP,Marathon,48.75529861450195,-86.34439849853516,CA,America/Toronto
St. Theresa Point Airport,YST,St. Theresa Point,53.845261,-94.851966,CA,America/Winnipeg
Summerside Airport,YSU,Slemon Park,46.440601,-63.833599,CA,America/Halifax
Sachs Harbour (David Nasogaluak Jr. Saaryuaq) Airport,YSY,Sachs Harbour,71.993896,-125.242996,CA,America/Inuvik
Pembroke Airport,YTA,Pembroke,45.86439895629883,-77.25170135498047,CA,America/Toronto
Cape Dorset Airport,YTE,Kinngait,64.230003,-76.526703,CA,America/Iqaluit
Alma Airport,YTF,Alma,48.5089,-71.641899,CA,America/Toronto
Thompson Airport,YTH,Thompson,55.80110168457031,-97.86419677734376,CA,America/Winnipeg
Big Trout Lake Airport,YTL,Big Trout Lake,53.817799,-89.896896,CA,America/Winnipeg
Tasiujaq Airport,YTQ,Tasiujaq,58.667801,-69.955803,CA,America/Toronto
CFB Trenton,YTR,Trenton,44.118900299072266,-77.5280990600586,CA,America/Toronto
Timmins/Victor M. Power,YTS,Timmins,48.5696983337,-81.376701355,CA,America/Toronto
Billy Bishop Toronto City Centre Airport,YTZ,Toronto,43.627499,-79.396202,CA,America/Toronto
Tuktoyaktuk / James Gruben Airport,YUB,Tuktoyaktuk,69.433296,-133.026001,CA,America/Inuvik
Montreal / Pierre Elliott Trudeau International Airport,YUL,Montréal,45.467837,-73.742294,CA,America/Toronto
Naujaat Airport,YUT,Repulse Bay,66.521024,-86.225166,CA,America/Rankin_Inlet
Hall Beach Airport,YUX,Sanirajak,68.7761,-81.2425,CA,America/Iqaluit
Rouyn Noranda Airport,YUY,Rouyn-Noranda,48.20610046386719,-78.83560180664062,CA,America/Toronto
Bonaventure Airport,YVB,Bonaventure,48.071098,-65.460297,CA,America/Toronto
La Ronge Airport,YVC,La Ronge,55.1514015198,-105.262001038,CA,America/Regina
Vermilion Airport,YVG,Vermilion,53.3558006287,-110.823997498,CA,America/Edmonton
Vernon Airport,YVE,Vernon,50.24810028076172,-119.33100128173828,CA,America/Vancouver
Tommy Kochon Airport,YCK,Colville Lake,67.02,-126.126,CA,America/Inuvik
Qikiqtarjuaq Airport,YVM,Qikiqtarjuaq,67.54656,-64.03141,CA,America/Iqaluit
Val-d'Or Airport,YVO,Val-d'Or,48.0532989502,-77.7827987671,CA,America/Toronto
Kuujjuaq Airport,YVP,Kuujjuaq,58.096099853515625,-68.4269027709961,CA,America/Toronto
Norman Wells Airport,YVQ,Norman Wells,65.28160095214844,-126.7979965209961,CA,America/Inuvik
Vancouver International Airport,YVR,Vancouver,49.193901062,-123.183998108,CA,America/Vancouver
Buffalo Narrows Airport,YVT,Buffalo Narrows,55.8418998718,-108.417999268,CA,America/Regina
Wiarton Airport,YVV,Wiarton,44.7458,-81.107201,CA,America/Toronto
Deer Lake Airport,YVZ,Deer Lake,52.655613,-94.061208,CA,America/Winnipeg
Petawawa Airport,YWA,Petawawa,45.95220184326172,-77.31919860839844,CA,America/Toronto
Winnipeg / James Armstrong Richardson International Airport,YWG,Winnipeg,49.9099998474,-97.2398986816,CA,America/Winnipeg
Déline Airport,YWJ,Déline,65.211098,-123.435997,CA,America/Inuvik
Wabush Airport,YWK,Wabush,52.92190170288086,-66.8644027709961,CA,America/Goose_Bay
Williams Lake Airport,YWL,Williams Lake,52.1831016541,-122.054000854,CA,America/Vancouver
Webequie Airport,YWP,Webequie,52.959393,-87.374868,CA,America/Toronto
Wrigley Airport,YWY,Wrigley,63.20940017700195,-123.43699645996094,CA,America/Inuvik
Cranbrook/Canadian Rockies International Airport,YXC,Cranbrook,49.610801696777,-115.78199768066,CA,America/Edmonton
Saskatoon John G. Diefenbaker International Airport,YXE,Saskatoon,52.17079925537109,-106.6999969482422,CA,America/Regina
Medicine Hat Regional Airport,YXH,Medicine Hat,50.018902,-110.721001,CA,America/Edmonton
Fort St John / North Peace Regional Airport,YXJ,Fort Saint John,56.238098,-120.739998,CA,America/Dawson_Creek
Rimouski Airport,YXK,Rimouski,48.477644,-68.496323,CA,America/Toronto
Sioux Lookout Airport,YXL,Sioux Lookout,50.11389923095703,-91.9052963256836,CA,America/Winnipeg
Whale Cove Airport,YXN,Whale Cove,62.240002,-92.598099,CA,America/Rankin_Inlet
Pangnirtung Airport,YXP,Pangnirtung,66.144878,-65.713606,CA,America/Iqaluit
Beaver Creek Airport,YXQ,Beaver Creek,62.410301208496094,-140.86700439453125,CA,America/Dawson
Earlton (Timiskaming Regional) Airport,YXR,Earlton,47.6974006546,-79.8473453522,CA,America/Toronto
Prince George Airport,YXS,Prince George,53.884311,-122.666554,CA,America/Vancouver
Northwest Regional Airport Terrace-Kitimat,YXT,Terrace,54.468498,-128.576009,CA,America/Vancouver
London Airport,YXU,London,43.035599,-81.1539,CA,America/Toronto
Abbotsford International Airport,YXX,Abbotsford,49.025299,-122.361,CA,America/Vancouver
Whitehorse / Erik Nielsen International Airport,YXY,Whitehorse,60.709599,-135.067001,CA,America/Whitehorse
Wawa Airport,YXZ,Wawa,47.96670150756836,-84.78669738769531,CA,America/Toronto
North Bay Jack Garland Airport,YYB,North Bay,46.363602,-79.422798,CA,America/Toronto
Calgary International Airport,YYC,Calgary,51.118822,-114.009933,CA,America/Edmonton
Smithers Airport,YYD,Smithers,54.82469940185547,-127.18299865722656,CA,America/Vancouver
Fort Nelson Airport,YYE,Fort Nelson,58.8363990784,-122.597000122,CA,America/Fort_Nelson
Penticton Airport,YYF,Penticton,49.46310043334961,-119.60199737548828,CA,America/Vancouver
Charlottetown Airport,YYG,Charlottetown,46.290000915527344,-63.12110137939453,CA,America/Halifax
Taloyoak Airport,YYH,Taloyoak,69.5467,-93.576698,CA,America/Cambridge_Bay
Victoria International Airport,YYJ,Victoria,48.647201,-123.427792,CA,America/Vancouver
Lynn Lake Airport,YYL,Lynn Lake,56.86389923095703,-101.07599639892578,CA,America/Winnipeg
Cowley Airport,YYM,Cowley,49.6363983154,-114.09400177,CA,America/Edmonton
Swift Current Airport,YYN,Swift Current,50.2919006348,-107.691001892,CA,America/Swift_Current
Churchill Airport,YYQ,Churchill,58.739200592041016,-94.06500244140624,CA,America/Winnipeg
Goose Bay Airport,YYR,Goose Bay,53.3191986084,-60.4258003235,CA,America/Goose_Bay
St. John's International Airport,YYT,St. John's,47.618599,-52.7519,CA,America/St_Johns
Kapuskasing Airport,YYU,Kapuskasing,49.411587,-82.469645,CA,America/Toronto
Armstrong Airport,YYW,Armstrong,50.29029846191406,-88.90969848632812,CA,America/Toronto
Mont Joli Airport,YYY,Mont-Joli,48.60860061645508,-68.20809936523438,CA,America/Toronto
Toronto Lester B. Pearson International Airport,YYZ,Toronto,43.6772,-79.6306,CA,America/Toronto
Gore Bay Manitoulin Airport,YZE,Gore Bay,45.8853,-82.567802,CA,America/Toronto
Yellowknife International Airport,YZF,Yellowknife,62.462799,-114.440002,CA,America/Edmonton
Salluit Airport,YZG,Salluit,62.179401,-75.667198,CA,America/Toronto
Slave Lake Airport,YZH,Slave Lake,55.2930984497,-114.777000427,CA,America/Edmonton
Sandspit Airport,YZP,Sandspit,53.25429916379999,-131.813995361,CA,America/Vancouver
Chris Hadfield Airport,YZR,Sarnia,42.999401,-82.308899,CA,America/Toronto
Coral Harbour Airport,YZS,Coral Harbour,64.1932983398,-83.3593978882,CA,America/Atikokan
Port Hardy Airport,YZT,Port Hardy,50.68059921264648,-127.36699676513672,CA,America/Vancouver
Whitecourt Airport,YZU,Whitecourt,54.143902,-115.787003,CA,America/Edmonton
Sept-Îles Airport,YZV,Sept-Îles,50.22330093383789,-66.2656021118164,CA,America/Toronto
Teslin Airport,YZW,Teslin,60.17279815673828,-132.7429962158203,CA,America/Whitehorse
CFB Greenwood,YZX,Greenwood,44.98440170288086,-64.91690063476562,CA,America/Halifax
York Landing Airport,ZAC,York Landing,56.089401,-96.089203,CA,America/Winnipeg
Shuswap Regional Airport,YSN,Salmon Arm,50.682802,-119.228996,CA,America/Vancouver
Boundary Bay Airport,YDT,Delta,49.0742,-123.012001,CA,America/Vancouver
Ilford Airport,ILF,Ilford,56.051622,-95.61882,CA,America/Winnipeg
Bathurst Airport,ZBF,South Tetagouche,47.6297,-65.738899,CA,America/Moncton
Bromont (Roland Désourdy) Airport,ZBM,Bromont,45.290798,-72.741402,CA,America/Toronto
Kelsey Airport,KES,Kelsey,56.0374984741,-96.5096969604,CA,America/Winnipeg
Eastmain River Airport,ZEM,Eastmain River,52.226398,-78.522499,CA,America/Toronto
Faro Airport,ZFA,Faro,62.20750045776367,-133.37600708007812,CA,America/Whitehorse
Fond-du-Lac Airport,ZFD,Fond-du-Lac,59.3344,-107.181999,CA,America/Regina
Pukatawagan Airport,XPK,Pukatawagan,55.749199,-101.265999,CA,America/Winnipeg
Fort Mcpherson Airport,ZFM,Fort Mcpherson,67.406993,-134.860182,CA,America/Inuvik
Tulita Airport,ZFN,Tulita,64.909496,-125.570297,CA,America/Inuvik
Grand Forks Airport,ZGF,Grand Forks,49.015598,-118.431,CA,America/Vancouver
Gods River Airport,ZGI,Gods River,54.839699,-94.078598,CA,America/Winnipeg
Little Grand Rapids Airport,ZGR,Little Grand Rapids,52.045417,-95.46617,CA,America/Winnipeg
High Prairie Airport,ZHP,High Prairie,55.3936004639,-116.474998474,CA,America/Edmonton
Corazón de Jesús Airport,CZJ,Tupile,9.44686,-78.575678,PA,America/Panama
Jenpeg Airport,ZJG,Jenpeg,54.51890182495117,-98.0460968017578,CA,America/Winnipeg
Swan River Airport,ZJN,Swan River,52.120602,-101.236,CA,America/Winnipeg
Cascade Locks State Airport,CZK,Cascade Locks,45.676599,-121.878879,US,America/Los_Angeles
Kashechewan Airport,ZKE,Kashechewan,52.282501,-81.677803,CA,America/Toronto
Thicket Portage Airport,YTD,Thicket Portage,55.31890106201172,-97.70780181884766,CA,America/Winnipeg
Muskrat Dam Airport,MSA,Muskrat Dam,53.441399,-91.762802,CA,America/Winnipeg
South Cariboo Region / 108 Mile Airport,ZMH,108 Mile,51.7360992432,-121.333000183,CA,America/Vancouver
Pikwitonei Airport,PIW,Pikwitonei,55.58890151977539,-97.16419982910156,CA,America/Winnipeg
Masset Airport,ZMT,Masset,54.0275,-132.125,CA,America/Vancouver
Chisana Airport,CZN,Chisana,62.0712013245,-142.04800415,US,America/Anchorage
Poplar River Airport,XPP,Poplar River,52.996526,-97.274194,CA,America/Winnipeg
Chistochina Airport,CZO,Chistochina,62.5634994507,-144.669006348,US,America/Anchorage
Sachigo Lake Airport,ZPB,Sachigo Lake,53.890885,-92.195935,CA,America/Winnipeg
Pincher Creek Airport,WPC,Pincher Creek,49.520599365200006,-113.997001648,CA,America/Edmonton
Pinehouse Lake Airport,ZPO,Pinehouse Lake,55.5280990601,-106.582000732,CA,America/Regina
Round Lake (Weagamow Lake) Airport,ZRJ,Round Lake,52.9436,-91.312798,CA,America/Winnipeg
Sandy Lake Airport,ZSJ,Sandy Lake,53.06420135498047,-93.34439849853516,CA,America/Winnipeg
South Indian Lake Airport,XSI,South Indian Lake,56.792801,-98.907204,CA,America/Winnipeg
Stewart Airport,ZST,Stewart,55.935410448,-129.982434511,CA,America/Vancouver
Bloodvein River Airport,YDV,Bloodvein River,51.784568,-96.692305,CA,America/Winnipeg
Shamattawa Airport,ZTM,Shamattawa,55.86356,-92.081137,CA,America/Winnipeg
Ignace Municipal Airport,ZUC,Ignace,49.428204,-91.720418,CA,America/Winnipeg
Churchill Falls Airport,ZUM,Churchill Falls,53.5619010925293,-64.10639953613281,CA,America/Goose_Bay
Lac Brochet Airport,XLB,Lac Brochet,58.614279,-101.468954,CA,America/Winnipeg
Wollaston Lake Airport,ZWL,Wollaston Lake,58.106899,-103.171997,CA,America/Regina
Canandaigua Airport,IUA,Ontario County IDA,42.908902,-77.325226,US,America/New_York
Delta Junction Airport,DJN,Delta Junction,64.049861,-145.722656,US,America/Anchorage
Mostaganem Airport,MQV,Sayada,35.90518,0.144539,DZ,Africa/Algiers
Blida Airport,QLD,Blida,36.503601,2.81417,DZ,Africa/Algiers
Bou Saada Airport,BUJ,Ouled Sidi Brahim,35.3325,4.20639,DZ,Africa/Algiers
Soummam–Abane Ramdane Airport,BJA,Béjaïa,36.711952,5.069804,DZ,Africa/Algiers
Houari Boumediene Airport,ALG,Algiers,36.693886,3.214531,DZ,Africa/Algiers
Djanet Inedbirene Airport,DJG,Djanet,24.292801,9.45244,DZ,Africa/Algiers
Illizi Takhamalt Airport,VVZ,Illizi,26.723499,8.62265,DZ,Africa/Algiers
Ain Arnat Airport,QSF,Sétif,36.178100585900005,5.32449007034,DZ,Africa/Algiers
Aguenar – Hadj Bey Akhamok Airport,TMR,Tamanrasset,22.811501,5.45108,DZ,Africa/Algiers
Jijel Ferhat Abbas Airport,GJL,Tahir,36.795101,5.87361,DZ,Africa/Algiers
Mecheria Airport,MZW,Mecheria,33.535900116,-0.242353007197,DZ,Africa/Algiers
Annaba Rabah Bitat Airport,AAE,Annaba,36.826781,7.81334,DZ,Africa/Algiers
Mohamed Boudiaf International Airport,CZL,Constantine,36.2760009765625,6.620389938354492,DZ,Africa/Algiers
Oum El Bouaghi Air Base,QMH,Oum El Bouaghi,35.8797,7.2708,DZ,Africa/Algiers
Cheikh Larbi Tébessi Airport,TEE,Tébessi,35.4315986633,8.12071990967,DZ,Africa/Algiers
Batna Mostefa Ben Boulaid Airport,BLJ,Batna,35.752102,6.30859,DZ,Africa/Algiers
Daup Airport,DAF,,-4.7403,145.9515,PG,Pacific/Port_Moresby
Hassi R'Mel Airport,HRM,Hassi R'Mel,32.930401,3.31154,DZ,Africa/Algiers
Tsletsi Airport,QDJ,Djelfa,34.6657,3.351,DZ,Africa/Algiers
Dathina Airport,DAH,Dathina,13.866884,46.133473,YE,Asia/Aden
Dabo Airport,DAO,,-8.431944444440001,147.843055556,PG,Pacific/Port_Moresby
Abdelhafid Boussouf Bou Chekif Airport,TID,Tiaret,35.341099,1.46315,DZ,Africa/Algiers
Tindouf Airport,TIN,Tindouf,27.7003993988,-8.167099952700001,DZ,Africa/Algiers
Chlef Aboubakr Belkaid International Airport,CFK,Chlef,36.217166,1.342237,DZ,Africa/Algiers
Oran Tafraoui Airport,TAF,Tafraoui,35.5424,-0.532278,DZ,Africa/Algiers
Zenata – Messali El Hadj Airport,TLM,Zenata,35.013426,-1.457191,DZ,Africa/Algiers
Oran Es-Sénia (Ahmed Ben Bella) International Airport,ORN,Es-Sénia,35.623901,-0.621183,DZ,Africa/Algiers
Béchar Boudghene Ben Ali Lotfi Airport,CBH,Béchar,31.645700454711918,-2.269860029220581,DZ,Africa/Algiers
Sidi Bel Abbes Airport,BFW,Sidi Bel Abbès,35.1717987061,-0.593275010586,DZ,Africa/Algiers
Ghriss Airport,MUW,Ghriss,35.207699,0.147142,DZ,Africa/Algiers
El Bayadh Airport,EBH,El Bayadh,33.721667,1.0925,DZ,Africa/Algiers
In Guezzam Airport,INF,In Guezzam,19.560518,5.749326,DZ,Africa/Algiers
Bordj Badji Mokhtar Airport,BMW,Bordj Badji Mokhtar,21.3778,0.92698,DZ,Africa/Algiers
Touat Cheikh Sidi Mohamed Belkebir Airport,AZR,Adrar,27.837601,-0.186414,DZ,Africa/Algiers
Biskra - Mohamed Khider Airport,BSK,Biskra,34.793301,5.73823,DZ,Africa/Algiers
El Golea Airport,ELG,El Menia,30.580732,2.861595,DZ,Africa/Algiers
Noumérat - Moufdi Zakaria Airport,GHA,El Atteuf,32.384102,3.79411,DZ,Africa/Algiers
Hassi Messaoud-Oued Irara Krim Belkacem Airport,HME,Hassi Messaoud,31.673,6.14044,DZ,Africa/Algiers
In Salah Airport,INZ,In Salah,27.250999,2.51202,DZ,Africa/Algiers
Touggourt Sidi Madhi Airport,TGR,Touggourt,33.067799,6.08867,DZ,Africa/Algiers
Laghouat - Molay Ahmed Medeghri Airport,LOO,Laghouat,33.7644,2.92834,DZ,Africa/Algiers
Guemar Airport,ELU,Guemar,33.5113983154,6.77679014206,DZ,Africa/Algiers
Timimoun Airport,TMX,Timimoun,29.237101,0.276033,DZ,Africa/Algiers
Ain Beida Airport,OGX,Ouargla,31.9172,5.41278,DZ,Africa/Algiers
Zarzaitine - In Aménas Airport,IAM,In Aménas,28.0515,9.64291,DZ,Africa/Algiers
Cadjehoun Airport,COO,Cotonou,6.357230186462402,2.384350061416626,BJ,Africa/Porto-Novo
Djougou Airport,DJA,Djougou,9.69208333333,1.63777777778,BJ,Africa/Porto-Novo
Kandi Airport,KDC,Kandi,11.14479,2.940381,BJ,Africa/Porto-Novo
Natitingou Airport,NAE,Natitingou,10.376965,1.360507,BJ,Africa/Porto-Novo
Parakou Airport,PKO,Parakou,9.35768985748291,2.609679937362671,BJ,Africa/Porto-Novo
Savé Airport,SVF,Savé,8.018170356750488,2.4645800590515137,BJ,Africa/Porto-Novo
Baicheng Chang'an Airport,DBC,Baicheng,45.505278,123.019722,CN,Asia/Shanghai
Debepare Airport,DBP,Debepare,-6.30861111111,141.905555556,PG,Pacific/Port_Moresby
Dahl Creek Airport,DCK,Dahl Creek,66.943298,-156.904999,US,America/Anchorage
Dodoima Airport,DDM,,-8.17736111111,147.809444444,PG,Pacific/Port_Moresby
Deqing Moganshan Airport,DEQ,Huzhou,30.504264,120.107388,CN,Asia/Shanghai
Derim Airport,DER,Derim,-6.14472222222,147.107222222,PG,Pacific/Port_Moresby
Nop Goliat Dekai Airport,DEX,Dekai,-4.8557,139.482006,ID,Asia/Jayapura
Kaya Airport,XKY,Kaya,13.06700038909912,-1.100000023841858,BF,Africa/Ouagadougou
Ouahigouya Airport,OUG,Ouahigouya,13.655287,-2.322067,BF,Africa/Ouagadougou
Djibo Airport,XDJ,Djibo,14.100000381469728,-1.6330000162124634,BF,Africa/Ouagadougou
Leo Airport,XLU,Leo,11.100000381469728,-2.0999999046325684,BF,Africa/Ouagadougou
Po Airport,PUP,Po,11.149999618530272,-1.149999976158142,BF,Africa/Ouagadougou
Boulsa Airport,XBO,Boulsa,12.649999618530272,-0.5669999718666077,BF,Africa/Ouagadougou
Bogande Airport,XBG,Bogande,12.982999801635742,-0.1669999957084655,BF,Africa/Ouagadougou
Diapaga Airport,DIP,Diapaga,12.060324,1.784631,BF,Africa/Ouagadougou
Dori Airport,DOR,Dori,14.021638,-0.068207,BF,Africa/Ouagadougou
Fada N'gourma Airport,FNG,Fada N'gourma,12.032999992370604,0.3499999940395355,BF,Africa/Ouagadougou
Gorom-Gorom Airport,XGG,Gorom-Gorom,14.449999809265137,-0.2329999953508377,BF,Africa/Ouagadougou
Kantchari Airport,XKA,Kantchari,12.464046,1.492939,BF,Africa/Ouagadougou
Tambao Airport,TMQ,Tambao,14.790874,0.039492,BF,Africa/Ouagadougou
Pama Airport,XPA,Pama,11.25,0.699999988079071,BF,Africa/Ouagadougou
Arly Airport,ARL,Arly,11.597,1.483,BF,Africa/Ouagadougou
Sebba Airport,XSE,Sebba,13.449999809265137,0.5170000195503235,BF,Africa/Ouagadougou
Tenkodogo Airport,TEG,Tenkodogo,11.801149,-0.371377,BF,Africa/Ouagadougou
Zabré Airport,XZA,Zabré,11.166999816894531,-0.6169999837875366,BF,Africa/Ouagadougou
Ouagadougou Airport,OUA,Ouagadougou,12.3532,-1.51242,BF,Africa/Ouagadougou
Banfora Airport,BNR,Banfora,10.688861,-4.727726,BF,Africa/Ouagadougou
Dedougou Airport,DGU,Dedougou,12.458999633789062,-3.490000009536743,BF,Africa/Ouagadougou
Gaoua Airport,XGA,Gaoua,10.384059,-3.163454,BF,Africa/Ouagadougou
Nouna Airport,XNU,Nouna,12.75,-3.867000103,BF,Africa/Ouagadougou
Bobo Dioulasso Airport,BOY,Bobo Dioulasso,11.160099983215332,-4.33096981048584,BF,Africa/Ouagadougou
Tougan Airport,TUQ,Tougan,13.06700038909912,-3.066999912261963,BF,Africa/Ouagadougou
Diebougou Airport,XDE,Diebougou,10.949999809265137,-3.25,BF,Africa/Ouagadougou
Aribinda Airport,XAR,Aribinda,14.2170000076,-0.883000016212,BF,Africa/Ouagadougou
Kotoka International Airport,ACC,Accra,5.605189800262451,-0.1667860001325607,GH,Africa/Accra
Tamale Airport,TML,Tamale,9.55718994140625,-0.8632140159606934,GH,Africa/Accra
Wa Airport,WZA,Wa,10.0827,-2.50769,GH,Africa/Accra
Kumasi Airport,KMS,Kumasi,6.714560031890869,-1.5908199548721311,GH,Africa/Accra
Sunyani Airport,NYI,Sunyani,7.36183,-2.32876,GH,Africa/Accra
Takoradi Airport,TKD,Sekondi-Takoradi,4.896059989929199,-1.7747600078582764,GH,Africa/Accra
Dalnegorsk Airport,DHG,Dalnegorsk,44.558748,135.490005,RU,Asia/Vladivostok
Ad-Dali Airport,DHL,Ad-Dali,13.73846,44.72719,YE,Asia/Aden
Aboisso Airport,ABO,Aboisso,5.461944,-3.234722,CI,Africa/Abidjan
Félix-Houphouët-Boigny International Airport,ABJ,Abidjan,5.26139,-3.92629,CI,Africa/Abidjan
Abengourou Airport,OGO,Abengourou,6.715559959411621,-3.4702799320220947,CI,Africa/Abidjan
Boundiali Airport,BXI,Boundiali,9.540571,-6.469831,CI,Africa/Abidjan
Bouaké Airport,BYK,Bouaké,7.7388,-5.07367,CI,Africa/Abidjan
Bouna Airport,BQO,Bouna,9.27750015258789,-3.025279998779297,CI,Africa/Abidjan
Soko Airport,BDK,Bondoukou,8.017219543457031,-2.7619400024414062,CI,Africa/Abidjan
Dimbokro Airport,DIM,Dimbokro,6.651669979095459,-4.640560150146484,CI,Africa/Abidjan
Daloa Airport,DJO,,6.79281,-6.47319,CI,Africa/Abidjan
Gagnoa Airport,GGN,Gagnoa,6.102855,-5.986809,CI,Africa/Abidjan
Guiglo Airport,GGO,Guiglo,6.534711,-7.526847,CI,Africa/Abidjan
Nero-Mer Airport,BBV,Grand-Béréby,4.64341306686,-6.923961639400001,CI,Africa/Abidjan
Korhogo Airport,HGO,Korhogo,9.38718,-5.55666,CI,Africa/Abidjan
Man Airport,MJC,,7.27207,-7.58736,CI,Africa/Abidjan
Odienne Airport,KEO,Odienne,9.539457,-7.56134,CI,Africa/Abidjan
Ouango Fitini Airport,OFI,Ouango Fitini,9.600000381469728,-4.050000190734863,CI,Africa/Abidjan
Séguéla Airport,SEO,Séguéla,7.96,-6.644167,CI,Africa/Abidjan
San Pedro Airport,SPY,,4.74672,-6.66082,CI,Africa/Abidjan
Sassandra Airport,ZSS,Sassandra,4.928888,-6.133156,CI,Africa/Abidjan
Tabou Airport,TXU,Tabou,4.437809467315674,-7.362728118896484,CI,Africa/Abidjan
Mahana Airport,TOZ,Touba,8.2934,-7.674,CI,Africa/Abidjan
Yamoussoukro Airport,ASK,Yamoussoukro,6.9031701088,-5.36558008194,CI,Africa/Abidjan
Dalnerechensk Airport,DLR,Dalnerechensk,45.877949,133.735822,RU,Asia/Vladivostok
Katsina Airport,DKA,Katsina,13.0078,7.66045,NG,Africa/Lagos
Nnamdi Azikiwe International Airport,ABV,Abuja,9.00679,7.26317,NG,Africa/Lagos
Akwa Ibom International Airport,QUO,Uyo,4.8725,8.093,NG,Africa/Lagos
Akure Airport,AKR,Akure,7.246739864349365,5.3010101318359375,NG,Africa/Lagos
Asaba International Airport,ABB,Asaba,6.204167,6.665278,NG,Africa/Lagos
Sir Abubakar Tafawa Balewa International Airport,BCU,Bauchi,10.482833,9.744,NG,Africa/Lagos
Benin Airport,BNI,Benin,6.316979885101318,5.599500179290772,NG,Africa/Lagos
Margaret Ekpo International Airport,CBQ,Calabar,4.976019859313965,8.347200393676758,NG,Africa/Lagos
Akanu Ibiam International Airport,ENU,Enegu,6.474269866943359,7.561960220336914,NG,Africa/Lagos
Gusau Airport,QUS,Gusau,12.1717,6.69611,NG,Africa/Lagos
Ibadan Airport,IBA,Ibadan,7.362460136413574,3.97832989692688,NG,Africa/Lagos
Ilorin International Airport,ILR,Ilorin,8.440210342407227,4.493919849395752,NG,Africa/Lagos
Sam Mbakwe International Airport,QOW,Owerri,5.427060127258301,7.206029891967773,NG,Africa/Lagos
Yakubu Gowon Airport,JOS,Jos,9.639829635620115,8.869050025939941,NG,Africa/Lagos
Kaduna Airport,KAD,Kaduna,10.696000099182127,7.320109844207764,NG,Africa/Lagos
Mallam Aminu International Airport,KAN,Kano,12.0476,8.52462,NG,Africa/Lagos
Maiduguri International Airport,MIU,Maiduguri,11.855299949645996,13.080900192260742,NG,Africa/Lagos
Makurdi Airport,MDI,Makurdi,7.70388,8.61394,NG,Africa/Lagos
Murtala Muhammed International Airport,LOS,Lagos,6.5773701667785645,3.321160078048706,NG,Africa/Lagos
Minna Airport,MXJ,Minna,9.652170181274414,6.462259769439697,NG,Africa/Lagos
Port Harcourt International Airport,PHC,Port Harcourt,5.0154900550842285,6.94959020614624,NG,Africa/Lagos
Sadiq Abubakar III International Airport,SKO,Sokoto,12.916299819946287,5.207190036773682,NG,Africa/Lagos
Yola Airport,YOL,Yola,9.257550239562988,12.430399894714355,NG,Africa/Lagos
Zaria Airport,ZAR,Zaria,11.1302,7.68581,NG,Africa/Lagos
Dorobisoro Airport,DOO,Dorobisoro,-9.461855,147.920907,PG,Pacific/Port_Moresby
Deputatskiy Airport,DPT,Deputatskiy,69.392503,139.890012,RU,Asia/Vladivostok
Daqing Sa'ertu Airport,DQA,Daqing,46.750883,125.138642,CN,Asia/Shanghai
Maradi Airport,MFQ,Maradi,13.5025,7.12675,NE,Africa/Niamey
Diori Hamani International Airport,NIM,Niamey,13.4815,2.18361,NE,Africa/Niamey
Tahoua Airport,THZ,Tahoua,14.8757,5.26536,NE,Africa/Niamey
Mano Dayak International Airport,AJY,Agadez,16.965999603271484,8.000109672546387,NE,Africa/Niamey
Arlit Airport,RLT,Arlit,18.7903995514,7.36595010757,NE,Africa/Niamey
Zinder Airport,ZND,Zinder,13.779000282287598,8.983759880065918,NE,Africa/Niamey
Dilasag Airport,DSG,Dilasag,16.445833333299998,122.206805556,PH,Asia/Manila
Tabarka-Aïn Draham International Airport,TBJ,Tabarka,36.98,8.87694,TN,Africa/Tunis
Monastir Habib Bourguiba International Airport,MIR,Monastir,35.75809860229492,10.75469970703125,TN,Africa/Tunis
Enfidha - Hammamet International Airport,NBE,Enfidha,36.075833,10.438611,TN,Africa/Tunis
Tunis Carthage International Airport,TUN,Tunis,36.851002,10.2272,TN,Africa/Tunis
Gafsa Ksar International Airport,GAF,Gafsa,34.422000885009766,8.822500228881836,TN,Africa/Tunis
Gabès Matmata International Airport,GAE,Gabès,33.733691,9.91941,TN,Africa/Tunis
Djerba Zarzis International Airport,DJE,Mellita,33.875,10.7755,TN,Africa/Tunis
El Borma Airport,EBM,El Borma,31.7043,9.25462,TN,Africa/Tunis
Sfax Thyna International Airport,SFA,Sfax,34.71799850463867,10.690999984741213,TN,Africa/Tunis
Tozeur Nefta International Airport,TOE,Tozeur,33.939701080322266,8.110560417175293,TN,Africa/Tunis
Andavadoaka Airport,DVD,Andavadoaka,-22.06608,43.259573,MG,Indian/Antananarivo
Dwyer Airport,DWR,Reg,31.091265,64.066053,AF,Asia/Kabul
Niamtougou International Airport,LRL,Niamtougou,9.767330169677734,1.091249942779541,TG,Africa/Lome
Lomé–Tokoin International Airport,LFW,Lomé,6.16561,1.25451,TG,Africa/Lome
Dazhou Jinya Airport,DZH,Dazhou (Dachuan),31.048815,107.435646,CN,Asia/Shanghai
Elenak Airport,EAL,Mejato Island,9.319305555560002,166.847777778,MH,Pacific/Kwajalein
Antwerp International Airport (Deurne),ANR,Antwerp,51.190667,4.463153,BE,Europe/Brussels
Brussels Airport,BRU,Zaventem,50.901402,4.48444,BE,Europe/Brussels
Brussels South Charleroi Airport,CRL,Charleroi,50.460982,4.457158,BE,Europe/Brussels
Flanders International Airport Kortrijk-Wevelgem,KJK,Wevelgem,50.818878,3.209551,BE,Europe/Brussels
Liège Airport,LGG,Grâce-Hollogne,50.638574,5.443897,BE,Europe/Brussels
Ebon Airport,EBO,Ebon Atoll,4.5982,168.752,MH,Pacific/Majuro
Oostende-Brugge International Airport,OST,Oostende,51.1998,2.874673,BE,Europe/Brussels
Oostmalle Airfield,OBL,Zoersel,51.269092,4.762428,BE,Europe/Brussels
Méndez Airport,MZD,Santiago de Méndez,-2.733330011367798,-78.31670379638672,EC,America/Guayaquil
Leipzig–Altenburg Airport,AOC,Nobitz,50.981945,12.506389,DE,Europe/Berlin
Heringsdorf Airport,HDF,Heringsdorf,53.8787002563,14.152299881,DE,Europe/Berlin
Riesa-Göhlis Airport,IES,Riesa,51.29361,13.356111,DE,Europe/Berlin
Rechlin-Lärz Airport,REB,Lärz,53.306389,12.752222,DE,Europe/Berlin
Cochstedt Airport,CSO,Hecklingen,51.8564,11.4203,DE,Europe/Berlin
Barth Airport,BBH,,54.338253,12.710515,DE,Europe/Berlin
Neubrandenburg Airport,FNB,Neubrandenburg,53.6022,13.306,DE,Europe/Berlin
Flugplatz Güttin / Rügen,GTI,Rügen,54.383331,13.325556,DE,Europe/Berlin
Köthen Airport,KOQ,Köthen (Anhalt),51.723745,11.948826,DE,Europe/Berlin
Peenemünde Airport,PEF,Peenemünde,54.1577796936,13.774443626399998,DE,Europe/Berlin
Berlin Brandenburg Airport,BER,Berlin,52.362247,13.500672,DE,Europe/Berlin
Dresden Airport,DRS,Dresden,51.134123,13.767831,DE,Europe/Berlin
Erfurt-Weimar Airport,ERF,Erfurt,50.979801,10.9581,DE,Europe/Berlin
Frankfurt Airport,FRA,Frankfurt am Main,50.030241,8.561096,DE,Europe/Berlin
Münster Osnabrück Airport,FMO,Greven,52.134602,7.68483,DE,Europe/Berlin
Hamburg Helmut Schmidt Airport,HAM,Hamburg,53.630402,9.98823,DE,Europe/Berlin
Cologne Bonn Airport,CGN,Köln (Cologne),50.865898,7.14274,DE,Europe/Berlin
Düsseldorf Airport,DUS,Düsseldorf,51.289501,6.76678,DE,Europe/Berlin
Munich Airport,MUC,Munich,48.353802,11.7861,DE,Europe/Berlin
Nuremberg Airport,NUE,Nuremberg,49.498699,11.078056,DE,Europe/Berlin
Leipzig/Halle Airport,LEJ,Schkeuditz,51.420657,12.232705,DE,Europe/Berlin
Saarbrücken Airport,SCN,Saarbrücken,49.2145996094,7.10950994492,DE,Europe/Berlin
Stuttgart Airport,STR,Stuttgart,48.689899,9.22196,DE,Europe/Berlin
Hannover Airport,HAJ,Hannover,52.461102,9.68508,DE,Europe/Berlin
Bremen Airport,BRE,Bremen,53.046786,8.78932,DE,Europe/Berlin
Frankfurt-Hahn Airport,HHN,Frankfurt am Main (Lautzenhausen),49.9487,7.26389,DE,Europe/Berlin
Mannheim-City Airport,MHG,Mannheim,49.473057,8.514167,DE,Europe/Berlin
Eisenach-Kindel Airport,EIB,Hörselberg-Hainich,50.991604,10.47973,DE,Europe/Berlin
Siegerland Airport,SGE,Burbach,50.707699,8.08297,DE,Europe/Berlin
Itzehoe/Hungriger Wolf Airfield,IZE,Itzehoe,53.992009,9.576409,DE,Europe/Berlin
Hamburg-Finkenwerder Airport,XFW,Hamburg,53.5352783203125,9.835556030273438,DE,Europe/Berlin
Kiel-Holtenau Airport,KEL,Kiel,54.379444,10.145278,DE,Europe/Berlin
Lübeck Blankensee Airport,LBC,Lübeck,53.8054008484,10.7192001343,DE,Europe/Berlin
Neumünster Airport,EUM,Neumünster,54.079445,9.941389,DE,Europe/Berlin
Memmingen Allgau Airport,FMM,Memmingen,47.9888000488,10.2395000458,DE,Europe/Berlin
Aachen-Merzbrück Airport,AAH,Aachen,50.823055,6.186389,DE,Europe/Berlin
Essen Mülheim Airport,ESS,,51.402302,6.93733,DE,Europe/Berlin
Bielefeld Airport,BFE,Bielefeld,51.964722,8.544444,DE,Europe/Berlin
Mönchengladbach Airport,MGL,Mönchengladbach,51.230278,6.504444,DE,Europe/Berlin
Paderborn Lippstadt Airport,PAD,Büren,51.614101,8.61632,DE,Europe/Berlin
Weeze Airport,NRN,Weeze,51.6024017334,6.14216995239,DE,Europe/Berlin
Dortmund Airport,DTM,Dortmund,51.518299,7.61224,DE,Europe/Berlin
Augsburg Airport,AGB,Augsburg,48.425278,10.931667,DE,Europe/Berlin
Oberpfaffenhofen Airport,OBF,Weßling,48.081402,11.2831,DE,Europe/Berlin
Straubing Airport,RBM,Atting,48.900833,12.516667,DE,Europe/Berlin
Friedrichshafen Airport,FDH,Friedrichshafen,47.671299,9.51149,DE,Europe/Berlin
Bayreuth Airport,BYU,Bindlach,49.985001,11.64,DE,Europe/Berlin
Burg Feuerstein Airport,URD,Ebermannstadt,49.794167,11.133611,DE,Europe/Berlin
Giebelstadt Airport,GHF,Giebelstadt,49.6480560303,9.966388702390002,DE,Europe/Berlin
Hof-Plauen Airport,HOQ,Hof,50.288544,11.852876,DE,Europe/Berlin
Bitburg Airport,BBJ,Bitburg,49.945278,6.565,DE,Europe/Berlin
Zweibrücken Airport,ZQW,Zweibrücken,49.2094,7.40056,DE,Europe/Berlin
Karlsruhe Baden-Baden Airport,FKB,Rheinmünster,48.7794,8.0805,DE,Europe/Berlin
Lahr Airport,LHA,,48.3693008423,7.82772016525,DE,Europe/Berlin
Braunschweig-Wolfsburg Airport,BWE,Braunschweig,52.319199,10.5561,DE,Europe/Berlin
Kassel Airport,KSF,Calden,51.420699,9.392152,DE,Europe/Berlin
Emden Airport,EME,Emden,53.391109,7.2275,DE,Europe/Berlin
Wangerooge Airport,AGE,Wangerooge,53.782544,7.919584,DE,Europe/Berlin
JadeWeser Airport,WVN,Wilhelmshaven,53.50222,8.052222,DE,Europe/Berlin
Juist Airport,JUI,Juist,53.681421,7.056398,DE,Europe/Berlin
Langeoog Airport,LGO,Langeoog,53.742379,7.496345,DE,Europe/Berlin
Borkum Airport,BMK,Borkum,53.59639,6.709167,DE,Europe/Berlin
Norden-Norddeich Airport,NOD,Norddeich,53.633057,7.190278,DE,Europe/Berlin
Varrelbusch Airfield,VAC,Cloppenburg,52.908333,8.040556,DE,Europe/Berlin
Norderney Airport,NRD,Norderney,53.706944,7.23,DE,Europe/Berlin
Baltrum Airport,BMR,Baltrum,53.72485,7.373257,DE,Europe/Berlin
Heide-Büsum Airport,HEI,Büsum,54.1533317566,8.90166664124,DE,Europe/Berlin
Flensburg-Schäferhaus Airport,FLF,Flensburg,54.773335,9.378889,DE,Europe/Berlin
Helgoland-Düne Airport,HGL,Helgoland,54.1852798462,7.91583299637,DE,Europe/Berlin
Husum-Schwesing Airport,QHU,Husum,54.5099983215,9.13833332062,DE,Europe/Berlin
St. Peter-Ording Airport,PSH,Sankt Peter-Ording,54.308887,8.686944,DE,Europe/Berlin
Westerland Sylt Airport,GWT,Westerland,54.9132,8.34047,DE,Europe/Berlin
Wyk auf Föhr Airport,OHR,Wyk auf Föhr,54.684444,8.528333,DE,Europe/Berlin
Kärdla Airport,KDL,Kärdla,58.99079895019531,22.830699920654297,EE,Europe/Tallinn
Kuressaare Airport,URE,Kuressaare,58.22990036010742,22.50950050354004,EE,Europe/Tallinn
Pärnu Airport,EPU,Pärnu,58.41899871826172,24.47279930114746,EE,Europe/Tallinn
Berenice International Airport / Banas Cape Air Base,EES,Berenice Troglodytica,23.980437,35.460277,EG,Africa/Cairo
Lennart Meri Tallinn Airport,TLL,Tallinn,59.41443,24.832706,EE,Europe/Tallinn
Tartu Airport,TAY,Tartu,58.307499,26.690399,EE,Europe/Tallinn
Enontekio Airport,ENF,Enontekio,68.362602233887,23.424299240112,FI,Europe/Helsinki
Efogi Airport,EFG,Efogi,-9.15380555556,147.659805556,PG,Pacific/Port_Moresby
Halli Airport,KEV,Jämsä,61.856039,24.786686,FI,Europe/Helsinki
Helsinki Vantaa Airport,HEL,Helsinki,60.318363,24.963341,FI,Europe/Helsinki
Hyvinkää Airfield,HYV,Hyvinkää,60.6544,24.8811,FI,Europe/Helsinki
Kitee Airport,KTQ,Kitee,62.1661,30.073601,FI,Europe/Helsinki
Ivalo Airport,IVL,Ivalo,68.607299804688,27.405300140381,FI,Europe/Helsinki
Joensuu Airport,JOE,Joensuu,62.658815,29.619398,FI,Europe/Helsinki
Jyväskylä Airport,JYV,Jyväskylän Maalaiskunta,62.399502,25.678301,FI,Europe/Helsinki
Kauhava Airfield,KAU,Kauhava,63.127102,23.051399,FI,Europe/Helsinki
Kemi-Tornio Airport,KEM,Kemi / Tornio,65.778701782227,24.582099914551,FI,Europe/Helsinki
Kajaani Airport,KAJ,Kajaani,64.2855,27.6924,FI,Europe/Helsinki
Kauhajoki Airfield,KHJ,,62.463212,22.390817,FI,Europe/Helsinki
Kokkola-Pietarsaari Airport,KOK,Kokkola / Kruunupyy,63.721199,23.143101,FI,Europe/Helsinki
Kuusamo Airport,KAO,Kuusamo,65.987602,29.239401,FI,Europe/Helsinki
Kittilä Airport,KTT,Kittilä,67.700996398926,24.846799850464,FI,Europe/Helsinki
Kuopio Airport,KUO,Kuopio / Siilinjärvi,63.007099,27.7978,FI,Europe/Helsinki
Lappeenranta Airport,LPP,Lappeenranta,61.044601,28.144743,FI,Europe/Helsinki
Mariehamn Airport,MHQ,Mariehamn,60.1222,19.898199,FI,Europe/Mariehamn
Mikkeli Airport,MIK,Mikkeli,61.6866,27.201799,FI,Europe/Helsinki
Oulu Airport,OUL,Oulu / Oulunsalo,64.930099,25.354601,FI,Europe/Helsinki
Pori Airport,POR,Pori,61.4617,21.799999,FI,Europe/Helsinki
Rovaniemi Airport,RVN,Rovaniemi,66.564796447754,25.830400466919,FI,Europe/Helsinki
Savonlinna Airport,SVL,Savonlinna,61.9431,28.945101,FI,Europe/Helsinki
Seinäjoki Airport,SJY,Seinäjoki / Ilmajoki,62.692101,22.8323,FI,Europe/Helsinki
Sodankyla Airport,SOT,Sodankyla,67.3949966431,26.6191005707,FI,Europe/Helsinki
Tampere-Pirkkala Airport,TMP,Tampere / Pirkkala,61.414101,23.604401,FI,Europe/Helsinki
Turku Airport,TKU,Turku,60.514099,22.2628,FI,Europe/Helsinki
Utti Air Base,UTI,Utti / Valkeala,60.8964,26.9384,FI,Europe/Helsinki
Vaasa Airport,VAA,Vaasa,63.050701,21.762199,FI,Europe/Helsinki
Varkaus Airport,VRK,Varkaus / Joroinen,62.171101,27.868601,FI,Europe/Helsinki
Ylivieska Airfield,YLI,,64.054722,24.725278,FI,Europe/Helsinki
Abu Rudeis Airport,AUE,Ras Abu Rudeis,28.899694,33.202057,EG,Africa/Cairo
Belfast International Airport,BFS,Belfast,54.6575012207,-6.21582984924,GB,Europe/London
Enniskillen/St Angelo Airport,ENK,Enniskillen,54.398899,-7.65167,GB,Europe/London
George Best Belfast City Airport,BHD,Belfast,54.618099,-5.8725,GB,Europe/London
City of Derry Airport,LDY,Derry,55.04280090332031,-7.161109924316406,GB,Europe/London
Birmingham International Airport,BHX,Birmingham,52.453899,-1.74803,GB,Europe/London
Coventry Airport,CVT,Coventry,52.3697013855,-1.47971999645,GB,Europe/London
Gloucestershire Airport,GLO,Staverton,51.89419937133789,-2.167220115661621,GB,Europe/London
Sywell Aerodrome,ORM,Northampton,52.3053016663,-0.7930560112,GB,Europe/London
Nottingham Airport,NQT,Nottingham,52.919998,-1.07917,GB,Europe/London
Cotswold Airport,GBA,Kemble,51.668095,-2.05694,GB,Europe/London
Manchester Airport,MAN,Manchester,53.349375,-2.279521,GB,Europe/London
Upavon Aerodrome,UPV,Upavon,51.2862014771,-1.7820199728,GB,Europe/London
RNAS Yeovilton,YEO,Yeovil,51.0093994140625,-2.638819932937622,GB,Europe/London
Campbeltown Airport,CAL,Campbeltown,55.437198638916016,-5.686389923095703,GB,Europe/London
Eday Airport,EOI,Eday,59.19060134887695,-2.7722198963165283,GB,Europe/London
Fair Isle Airport,FIE,Fair Isle,59.534721,-1.628509,GB,Europe/London
Whalsay Airstrip,WHS,"Whalsay, Shetlands",60.376835,-0.927229,GB,Europe/London
Coll Airport,COL,Coll Island,56.601898,-6.61778,GB,Europe/London
North Ronaldsay Airport,NRL,North Ronaldsay,59.3675003052,-2.43443989754,GB,Europe/London
Oban Airport,OBN,North Connel,56.463501,-5.39967,GB,Europe/London
Papa Westray Airport,PPW,Papa Westray,59.351699829100006,-2.9002799987800003,GB,Europe/London
Stronsay Airport,SOY,Stronsay,59.1553,-2.64139,GB,Europe/London
Sanday Airport,NDY,Sanday,59.250301,-2.57667,GB,Europe/London
Lerwick / Tingwall Airport,LWK,Lerwick,60.192199707,-1.24361002445,GB,Europe/London
Westray Airport,WRY,Westray,59.3502998352,-2.95000004768,GB,Europe/London
Colonsay Airstrip,CSA,Colonsay,56.057499,-6.24306,GB,Europe/London
Haverfordwest Airport,HAW,Haverfordwest,51.833099365234375,-4.9611101150512695,GB,Europe/London
Cardiff International Airport,CWL,Cardiff,51.396702,-3.34333,GB,Europe/London
Swansea Airport,SWS,Swansea,51.60530090332031,-4.0678300857543945,GB,Europe/London
Bristol Airport,BRS,Bristol,51.382702,-2.71909,GB,Europe/London
Liverpool John Lennon Airport,LPL,Liverpool,53.333599,-2.84972,GB,Europe/London
London Luton Airport,LTN,"Luton, Bedfordshire",51.874699,-0.368333,GB,Europe/London
Land's End Airport,LEQ,Land's End,50.102798,-5.67056,GB,Europe/London
St. Mary's Airport,ISC,St. Mary's,49.9133,-6.29167,GB,Europe/London
Bournemouth Airport,BOH,Bournemouth,50.779999,-1.8425,GB,Europe/London
Southampton Airport,SOU,Southampton,50.950298,-1.3568,GB,Europe/London
Bembridge Airport,BBP,Bembridge,50.6781005859,-1.10943996906,GB,Europe/London
Cornwall Airport Newquay,NQY,Newquay,50.440601,-4.99541,GB,Europe/London
Goodwood Aerodrome,QUG,Chichester,50.859402,-0.759167,GB,Europe/London
Alderney Airport,ACI,Saint Anne,49.706104,-2.21472,GG,Europe/Guernsey
Guernsey Airport,GCI,Saint Peter Port,49.435001,-2.60197,GG,Europe/Guernsey
